<?xml version="1.0" encoding="UTF-8"?>
<kml xmlns="http://earth.google.com/kml/2.1">
<Document>
	<name><![CDATA[Catégorie:Sommet des Alpes françaises]]></name>
	<open>1</open>
		<Placemark>
			<name><![CDATA[Aiguille Croche]]></name>
			<Point>
				<coordinates>6.65917,45.80028,0</coordinates>
			</Point>
			<Snippet></Snippet>
			<description><![CDATA[<br>Source: Wikipedia article <a href="https://fr.wikipedia.org/wiki/Aiguille_Croche">Aiguille Croche</a>]]></description>
		</Placemark>
		<Placemark>
			<name><![CDATA[Aiguille Dibona]]></name>
			<Point>
				<coordinates>6.24278,44.9625,0</coordinates>
			</Point>
			<Snippet></Snippet>
			<description><![CDATA[<br>Source: Wikipedia article <a href="https://fr.wikipedia.org/wiki/Aiguille_Dibona">Aiguille Dibona</a>]]></description>
		</Placemark>
		<Placemark>
			<name><![CDATA[Aiguille Rouge]]></name>
			<Point>
				<coordinates>6.84861,45.55194,0</coordinates>
			</Point>
			<Snippet></Snippet>
			<description><![CDATA[<br>Source: Wikipedia article <a href="https://fr.wikipedia.org/wiki/Aiguille_Rouge">Aiguille Rouge</a>]]></description>
		</Placemark>
		<Placemark>
			<name><![CDATA[Aiguille Verte]]></name>
			<Point>
				<coordinates>6.97,45.93472,0</coordinates>
			</Point>
			<Snippet></Snippet>
			<description><![CDATA[<br>Source: Wikipedia article <a href="https://fr.wikipedia.org/wiki/Aiguille_Verte">Aiguille Verte</a>]]></description>
		</Placemark>
		<Placemark>
			<name><![CDATA[Aiguille d'Argentière]]></name>
			<Point>
				<coordinates>7.02028,45.95972,0</coordinates>
			</Point>
			<Snippet></Snippet>
			<description><![CDATA[<br>Source: Wikipedia article <a href="https://fr.wikipedia.org/wiki/Aiguille_d'Argentière">Aiguille d'Argentière</a>]]></description>
		</Placemark>
		<Placemark>
			<name><![CDATA[Aiguille de Bionnassay]]></name>
			<Point>
				<coordinates>6.81806,45.83583,0</coordinates>
			</Point>
			<Snippet></Snippet>
			<description><![CDATA[<br>Source: Wikipedia article <a href="https://fr.wikipedia.org/wiki/Aiguille_de_Bionnassay">Aiguille de Bionnassay</a>]]></description>
		</Placemark>
		<Placemark>
			<name><![CDATA[Aiguille de Blaitière]]></name>
			<Point>
				<coordinates>6.91306,45.89917,0</coordinates>
			</Point>
			<Snippet></Snippet>
			<description><![CDATA[<br>Source: Wikipedia article <a href="https://fr.wikipedia.org/wiki/Aiguille_de_Blaitière">Aiguille de Blaitière</a>]]></description>
		</Placemark>
		<Placemark>
			<name><![CDATA[Aiguille de Borderan]]></name>
			<Point>
				<coordinates>6.4778,45.88639,0</coordinates>
			</Point>
			<Snippet></Snippet>
			<description><![CDATA[<br>Source: Wikipedia article <a href="https://fr.wikipedia.org/wiki/Aiguille_de_Borderan">Aiguille de Borderan</a>]]></description>
		</Placemark>
		<Placemark>
			<name><![CDATA[Aiguille de Chalais]]></name>
			<Point>
				<coordinates>5.66056,45.29389,0</coordinates>
			</Point>
			<Snippet></Snippet>
			<description><![CDATA[<br>Source: Wikipedia article <a href="https://fr.wikipedia.org/wiki/Aiguille_de_Chalais">Aiguille de Chalais</a>]]></description>
		</Placemark>
		<Placemark>
			<name><![CDATA[Aiguille de Chambeyron]]></name>
			<Point>
				<coordinates>6.85611,44.5472,0</coordinates>
			</Point>
			<Snippet></Snippet>
			<description><![CDATA[<br>Source: Wikipedia article <a href="https://fr.wikipedia.org/wiki/Aiguille_de_Chambeyron">Aiguille de Chambeyron</a>]]></description>
		</Placemark>
		<Placemark>
			<name><![CDATA[Aiguille de Criou]]></name>
			<Point>
				<coordinates>6.76361,46.09528,0</coordinates>
			</Point>
			<Snippet></Snippet>
			<description><![CDATA[<br>Source: Wikipedia article <a href="https://fr.wikipedia.org/wiki/Aiguille_de_Criou">Aiguille de Criou</a>]]></description>
		</Placemark>
		<Placemark>
			<name><![CDATA[Aiguille de Leschaux]]></name>
			<Point>
				<coordinates>7.00667,45.88722,0</coordinates>
			</Point>
			<Snippet></Snippet>
			<description><![CDATA[<br>Source: Wikipedia article <a href="https://fr.wikipedia.org/wiki/Aiguille_de_Leschaux">Aiguille de Leschaux</a>]]></description>
		</Placemark>
		<Placemark>
			<name><![CDATA[Aiguille de Polset]]></name>
			<Point>
				<coordinates>6.63917,45.27639,0</coordinates>
			</Point>
			<Snippet></Snippet>
			<description><![CDATA[<br>Source: Wikipedia article <a href="https://fr.wikipedia.org/wiki/Aiguille_de_Polset">Aiguille de Polset</a>]]></description>
		</Placemark>
		<Placemark>
			<name><![CDATA[Aiguille de Péclet]]></name>
			<Point>
				<coordinates>6.62389,45.28111,0</coordinates>
			</Point>
			<Snippet></Snippet>
			<description><![CDATA[<br>Source: Wikipedia article <a href="https://fr.wikipedia.org/wiki/Aiguille_de_Péclet">Aiguille de Péclet</a>]]></description>
		</Placemark>
		<Placemark>
			<name><![CDATA[Aiguille de Quaix]]></name>
			<Point>
				<coordinates>5.72,45.26694,0</coordinates>
			</Point>
			<Snippet></Snippet>
			<description><![CDATA[<br>Source: Wikipedia article <a href="https://fr.wikipedia.org/wiki/Aiguille_de_Quaix">Aiguille de Quaix</a>]]></description>
		</Placemark>
		<Placemark>
			<name><![CDATA[Aiguille de Roc]]></name>
			<Point>
				<coordinates>6.91889,45.90139,0</coordinates>
			</Point>
			<Snippet></Snippet>
			<description><![CDATA[<br>Source: Wikipedia article <a href="https://fr.wikipedia.org/wiki/Aiguille_de_Roc">Aiguille de Roc</a>]]></description>
		</Placemark>
		<Placemark>
			<name><![CDATA[Aiguille de Rochefort]]></name>
			<Point>
				<coordinates>6.96,45.86194,0</coordinates>
			</Point>
			<Snippet></Snippet>
			<description><![CDATA[<br>Source: Wikipedia article <a href="https://fr.wikipedia.org/wiki/Aiguille_de_Rochefort">Aiguille de Rochefort</a>]]></description>
		</Placemark>
		<Placemark>
			<name><![CDATA[Aiguille de Saussure]]></name>
			<Point>
				<coordinates>6.87417,45.85889,0</coordinates>
			</Point>
			<Snippet></Snippet>
			<description><![CDATA[<br>Source: Wikipedia article <a href="https://fr.wikipedia.org/wiki/Aiguille_de_Saussure">Aiguille de Saussure</a>]]></description>
		</Placemark>
		<Placemark>
			<name><![CDATA[Aiguille de Scolette]]></name>
			<Point>
				<coordinates>6.76806,45.15972,0</coordinates>
			</Point>
			<Snippet></Snippet>
			<description><![CDATA[<br>Source: Wikipedia article <a href="https://fr.wikipedia.org/wiki/Aiguille_de_Scolette">Aiguille de Scolette</a>]]></description>
		</Placemark>
		<Placemark>
			<name><![CDATA[Aiguille de Talèfre]]></name>
			<Point>
				<coordinates>7.00389,45.89972,0</coordinates>
			</Point>
			<Snippet></Snippet>
			<description><![CDATA[<br>Source: Wikipedia article <a href="https://fr.wikipedia.org/wiki/Aiguille_de_Talèfre">Aiguille de Talèfre</a>]]></description>
		</Placemark>
		<Placemark>
			<name><![CDATA[Aiguille de Triolet]]></name>
			<Point>
				<coordinates>7.02444,45.91639,0</coordinates>
			</Point>
			<Snippet></Snippet>
			<description><![CDATA[<br>Source: Wikipedia article <a href="https://fr.wikipedia.org/wiki/Aiguille_de_Triolet">Aiguille de Triolet</a>]]></description>
		</Placemark>
		<Placemark>
			<name><![CDATA[Aiguille de Varan]]></name>
			<Point>
				<coordinates>6.68278,45.9583,0</coordinates>
			</Point>
			<Snippet></Snippet>
			<description><![CDATA[<br>Source: Wikipedia article <a href="https://fr.wikipedia.org/wiki/Aiguille_de_Varan">Aiguille de Varan</a>]]></description>
		</Placemark>
		<Placemark>
			<name><![CDATA[Aiguille de l'A Neuve]]></name>
			<Point>
				<coordinates>7.03667,45.95222,0</coordinates>
			</Point>
			<Snippet></Snippet>
			<description><![CDATA[<br>Source: Wikipedia article <a href="https://fr.wikipedia.org/wiki/Aiguille_de_l'A_Neuve">Aiguille de l'A Neuve</a>]]></description>
		</Placemark>
		<Placemark>
			<name><![CDATA[Aiguille de l'M]]></name>
			<Point>
				<coordinates>6.91278,45.91222,0</coordinates>
			</Point>
			<Snippet></Snippet>
			<description><![CDATA[<br>Source: Wikipedia article <a href="https://fr.wikipedia.org/wiki/Aiguille_de_l'M">Aiguille de l'M</a>]]></description>
		</Placemark>
		<Placemark>
			<name><![CDATA[Aiguille de la Floria]]></name>
			<Point>
				<coordinates>6.86861,45.97611,0</coordinates>
			</Point>
			<Snippet></Snippet>
			<description><![CDATA[<br>Source: Wikipedia article <a href="https://fr.wikipedia.org/wiki/Aiguille_de_la_Floria">Aiguille de la Floria</a>]]></description>
		</Placemark>
		<Placemark>
			<name><![CDATA[Aiguille de la Grande Sassière]]></name>
			<Point>
				<coordinates>6.99972,45.50472,0</coordinates>
			</Point>
			<Snippet></Snippet>
			<description><![CDATA[<br>Source: Wikipedia article <a href="https://fr.wikipedia.org/wiki/Aiguille_de_la_Grande_Sassière">Aiguille de la Grande Sassière</a>]]></description>
		</Placemark>
		<Placemark>
			<name><![CDATA[Aiguille de la République]]></name>
			<Point>
				<coordinates>6.92139,45.9056,0</coordinates>
			</Point>
			<Snippet></Snippet>
			<description><![CDATA[<br>Source: Wikipedia article <a href="https://fr.wikipedia.org/wiki/Aiguille_de_la_République">Aiguille de la République</a>]]></description>
		</Placemark>
		<Placemark>
			<name><![CDATA[Aiguille de la Vanoise]]></name>
			<Point>
				<coordinates>6.77917,45.39472,0</coordinates>
			</Point>
			<Snippet></Snippet>
			<description><![CDATA[<br>Source: Wikipedia article <a href="https://fr.wikipedia.org/wiki/Aiguille_de_la_Vanoise">Aiguille de la Vanoise</a>]]></description>
		</Placemark>
		<Placemark>
			<name><![CDATA[Aiguille des Arias]]></name>
			<Point>
				<coordinates>6.17167,44.8944,0</coordinates>
			</Point>
			<Snippet></Snippet>
			<description><![CDATA[<br>Source: Wikipedia article <a href="https://fr.wikipedia.org/wiki/Aiguille_des_Arias">Aiguille des Arias</a>]]></description>
		</Placemark>
		<Placemark>
			<name><![CDATA[Aiguille des Glaciers]]></name>
			<Point>
				<coordinates>6.8025,45.77861,0</coordinates>
			</Point>
			<Snippet></Snippet>
			<description><![CDATA[<br>Source: Wikipedia article <a href="https://fr.wikipedia.org/wiki/Aiguille_des_Glaciers">Aiguille des Glaciers</a>]]></description>
		</Placemark>
		<Placemark>
			<name><![CDATA[Aiguille des Grands Charmoz]]></name>
			<Point>
				<coordinates>6.91889,45.90444,0</coordinates>
			</Point>
			<Snippet></Snippet>
			<description><![CDATA[<br>Source: Wikipedia article <a href="https://fr.wikipedia.org/wiki/Aiguille_des_Grands_Charmoz">Aiguille des Grands Charmoz</a>]]></description>
		</Placemark>
		<Placemark>
			<name><![CDATA[Aiguille des Grands Montets]]></name>
			<Point>
				<coordinates>6.96056,45.94806,0</coordinates>
			</Point>
			<Snippet></Snippet>
			<description><![CDATA[<br>Source: Wikipedia article <a href="https://fr.wikipedia.org/wiki/Aiguille_des_Grands_Montets">Aiguille des Grands Montets</a>]]></description>
		</Placemark>
		<Placemark>
			<name><![CDATA[Aiguille des Petits Charmoz]]></name>
			<Point>
				<coordinates>6.91306,45.91139,0</coordinates>
			</Point>
			<Snippet></Snippet>
			<description><![CDATA[<br>Source: Wikipedia article <a href="https://fr.wikipedia.org/wiki/Aiguille_des_Petits_Charmoz">Aiguille des Petits Charmoz</a>]]></description>
		</Placemark>
		<Placemark>
			<name><![CDATA[Aiguille des Pélerins]]></name>
			<Point>
				<coordinates>6.90167,45.895,0</coordinates>
			</Point>
			<Snippet></Snippet>
			<description><![CDATA[<br>Source: Wikipedia article <a href="https://fr.wikipedia.org/wiki/Aiguille_des_Pélerins">Aiguille des Pélerins</a>]]></description>
		</Placemark>
		<Placemark>
			<name><![CDATA[Aiguille du Belvédère]]></name>
			<Point>
				<coordinates>6.87333,45.9875,0</coordinates>
			</Point>
			<Snippet></Snippet>
			<description><![CDATA[<br>Source: Wikipedia article <a href="https://fr.wikipedia.org/wiki/Aiguille_du_Belvédère">Aiguille du Belvédère</a>]]></description>
		</Placemark>
		<Placemark>
			<name><![CDATA[Aiguille du Chardonnet]]></name>
			<Point>
				<coordinates>7.00139,45.96889,0</coordinates>
			</Point>
			<Snippet></Snippet>
			<description><![CDATA[<br>Source: Wikipedia article <a href="https://fr.wikipedia.org/wiki/Aiguille_du_Chardonnet">Aiguille du Chardonnet</a>]]></description>
		</Placemark>
		<Placemark>
			<name><![CDATA[Aiguille du Fou]]></name>
			<Point>
				<coordinates>6.91194,45.8972,0</coordinates>
			</Point>
			<Snippet></Snippet>
			<description><![CDATA[<br>Source: Wikipedia article <a href="https://fr.wikipedia.org/wiki/Aiguille_du_Fou">Aiguille du Fou</a>]]></description>
		</Placemark>
		<Placemark>
			<name><![CDATA[Aiguille du Fruit]]></name>
			<Point>
				<coordinates>6.63111,45.3556,0</coordinates>
			</Point>
			<Snippet></Snippet>
			<description><![CDATA[<br>Source: Wikipedia article <a href="https://fr.wikipedia.org/wiki/Aiguille_du_Fruit">Aiguille du Fruit</a>]]></description>
		</Placemark>
		<Placemark>
			<name><![CDATA[Aiguille du Goûter]]></name>
			<Point>
				<coordinates>6.83111,45.85056,0</coordinates>
			</Point>
			<Snippet></Snippet>
			<description><![CDATA[<br>Source: Wikipedia article <a href="https://fr.wikipedia.org/wiki/Aiguille_du_Goûter">Aiguille du Goûter</a>]]></description>
		</Placemark>
		<Placemark>
			<name><![CDATA[Aiguille du Grand Fond]]></name>
			<Point>
				<coordinates>6.67083,45.66611,0</coordinates>
			</Point>
			<Snippet></Snippet>
			<description><![CDATA[<br>Source: Wikipedia article <a href="https://fr.wikipedia.org/wiki/Aiguille_du_Grand_Fond">Aiguille du Grand Fond</a>]]></description>
		</Placemark>
		<Placemark>
			<name><![CDATA[Aiguille du Grépon]]></name>
			<Point>
				<coordinates>6.91917,45.9025,0</coordinates>
			</Point>
			<Snippet></Snippet>
			<description><![CDATA[<br>Source: Wikipedia article <a href="https://fr.wikipedia.org/wiki/Aiguille_du_Grépon">Aiguille du Grépon</a>]]></description>
		</Placemark>
		<Placemark>
			<name><![CDATA[Aiguille du Jardin]]></name>
			<Point>
				<coordinates>6.97583,45.93389,0</coordinates>
			</Point>
			<Snippet></Snippet>
			<description><![CDATA[<br>Source: Wikipedia article <a href="https://fr.wikipedia.org/wiki/Aiguille_du_Jardin">Aiguille du Jardin</a>]]></description>
		</Placemark>
		<Placemark>
			<name><![CDATA[Aiguille du Midi]]></name>
			<Point>
				<coordinates>6.88722,45.87861,0</coordinates>
			</Point>
			<Snippet></Snippet>
			<description><![CDATA[<br>Source: Wikipedia article <a href="https://fr.wikipedia.org/wiki/Aiguille_du_Midi">Aiguille du Midi</a>]]></description>
		</Placemark>
		<Placemark>
			<name><![CDATA[Aiguille du Moine]]></name>
			<Point>
				<coordinates>6.96139,45.91667,0</coordinates>
			</Point>
			<Snippet></Snippet>
			<description><![CDATA[<br>Source: Wikipedia article <a href="https://fr.wikipedia.org/wiki/Aiguille_du_Moine">Aiguille du Moine</a>]]></description>
		</Placemark>
		<Placemark>
			<name><![CDATA[Aiguille du Peigne]]></name>
			<Point>
				<coordinates>6.89944,45.89583,0</coordinates>
			</Point>
			<Snippet></Snippet>
			<description><![CDATA[<br>Source: Wikipedia article <a href="https://fr.wikipedia.org/wiki/Aiguille_du_Peigne">Aiguille du Peigne</a>]]></description>
		</Placemark>
		<Placemark>
			<name><![CDATA[Aiguille du Plan]]></name>
			<Point>
				<coordinates>6.90722,45.8917,0</coordinates>
			</Point>
			<Snippet></Snippet>
			<description><![CDATA[<br>Source: Wikipedia article <a href="https://fr.wikipedia.org/wiki/Aiguille_du_Plan">Aiguille du Plan</a>]]></description>
		</Placemark>
		<Placemark>
			<name><![CDATA[Aiguille du Plat de la Selle]]></name>
			<Point>
				<coordinates>6.2222,44.96361,0</coordinates>
			</Point>
			<Snippet></Snippet>
			<description><![CDATA[<br>Source: Wikipedia article <a href="https://fr.wikipedia.org/wiki/Aiguille_du_Plat_de_la_Selle">Aiguille du Plat de la Selle</a>]]></description>
		</Placemark>
		<Placemark>
			<name><![CDATA[Aiguille du Tacul]]></name>
			<Point>
				<coordinates>6.9611,45.88472,0</coordinates>
			</Point>
			<Snippet></Snippet>
			<description><![CDATA[<br>Source: Wikipedia article <a href="https://fr.wikipedia.org/wiki/Aiguille_du_Tacul">Aiguille du Tacul</a>]]></description>
		</Placemark>
		<Placemark>
			<name><![CDATA[Aiguille du Tour]]></name>
			<Point>
				<coordinates>7.00944,45.99417,0</coordinates>
			</Point>
			<Snippet></Snippet>
			<description><![CDATA[<br>Source: Wikipedia article <a href="https://fr.wikipedia.org/wiki/Aiguille_du_Tour">Aiguille du Tour</a>]]></description>
		</Placemark>
		<Placemark>
			<name><![CDATA[Aiguilles d'Arves]]></name>
			<Point>
				<coordinates>6.33444,45.12306,0</coordinates>
			</Point>
			<Snippet></Snippet>
			<description><![CDATA[<br>Source: Wikipedia article <a href="https://fr.wikipedia.org/wiki/Aiguilles_d'Arves">Aiguilles d'Arves</a>]]></description>
		</Placemark>
		<Placemark>
			<name><![CDATA[Aiguilles de Pelens]]></name>
			<Point>
				<coordinates>6.71639,44.1425,0</coordinates>
			</Point>
			<Snippet></Snippet>
			<description><![CDATA[<br>Source: Wikipedia article <a href="https://fr.wikipedia.org/wiki/Aiguilles_de_Pelens">Aiguilles de Pelens</a>]]></description>
		</Placemark>
		<Placemark>
			<name><![CDATA[Aiguilles de la Penaz]]></name>
			<Point>
				<coordinates>6.69944,45.74472,0</coordinates>
			</Point>
			<Snippet></Snippet>
			<description><![CDATA[<br>Source: Wikipedia article <a href="https://fr.wikipedia.org/wiki/Aiguilles_de_la_Penaz">Aiguilles de la Penaz</a>]]></description>
		</Placemark>
		<Placemark>
			<name><![CDATA[Aiguilles du Diable]]></name>
			<Point>
				<coordinates>6.89028,45.85472,0</coordinates>
			</Point>
			<Snippet></Snippet>
			<description><![CDATA[<br>Source: Wikipedia article <a href="https://fr.wikipedia.org/wiki/Aiguilles_du_Diable">Aiguilles du Diable</a>]]></description>
		</Placemark>
		<Placemark>
			<name><![CDATA[Aiguillette du Lauzet]]></name>
			<Point>
				<coordinates>6.48333,45.02139,0</coordinates>
			</Point>
			<Snippet></Snippet>
			<description><![CDATA[<br>Source: Wikipedia article <a href="https://fr.wikipedia.org/wiki/Aiguillette_du_Lauzet">Aiguillette du Lauzet</a>]]></description>
		</Placemark>
		<Placemark>
			<name><![CDATA[Albaron (sommet)]]></name>
			<Point>
				<coordinates>7.10111,45.33389,0</coordinates>
			</Point>
			<Snippet></Snippet>
			<description><![CDATA[<br>Source: Wikipedia article <a href="https://fr.wikipedia.org/wiki/Albaron_(sommet)">Albaron (sommet)</a>]]></description>
		</Placemark>
		<Placemark>
			<name><![CDATA[Arcalod]]></name>
			<Point>
				<coordinates>6.22833,45.68194,0</coordinates>
			</Point>
			<Snippet></Snippet>
			<description><![CDATA[<br>Source: Wikipedia article <a href="https://fr.wikipedia.org/wiki/Arcalod">Arcalod</a>]]></description>
		</Placemark>
		<Placemark>
			<name><![CDATA[Arêtes du Gerbier]]></name>
			<Point>
				<coordinates>5.58917,45.02528,0</coordinates>
			</Point>
			<Snippet></Snippet>
			<description><![CDATA[<br>Source: Wikipedia article <a href="https://fr.wikipedia.org/wiki/Arêtes_du_Gerbier">Arêtes du Gerbier</a>]]></description>
		</Placemark>
		<Placemark>
			<name><![CDATA[Baou de Saint-Jeannet]]></name>
			<Point>
				<coordinates>7.138056,43.750556,0</coordinates>
			</Point>
			<Snippet></Snippet>
			<description><![CDATA[<br>Source: Wikipedia article <a href="https://fr.wikipedia.org/wiki/Baou_de_Saint-Jeannet">Baou de Saint-Jeannet</a>]]></description>
		</Placemark>
		<Placemark>
			<name><![CDATA[Baou des Blancs]]></name>
			<Point>
				<coordinates>7.109031,43.734092,0</coordinates>
			</Point>
			<Snippet></Snippet>
			<description><![CDATA[<br>Source: Wikipedia article <a href="https://fr.wikipedia.org/wiki/Baou_des_Blancs">Baou des Blancs</a>]]></description>
		</Placemark>
		<Placemark>
			<name><![CDATA[Baou des Noirs]]></name>
			<Point>
				<coordinates>7.12389,43.74306,0</coordinates>
			</Point>
			<Snippet></Snippet>
			<description><![CDATA[<br>Source: Wikipedia article <a href="https://fr.wikipedia.org/wiki/Baou_des_Noirs">Baou des Noirs</a>]]></description>
		</Placemark>
		<Placemark>
			<name><![CDATA[Barre des Écrins]]></name>
			<Point>
				<coordinates>6.35944,44.92194,0</coordinates>
			</Point>
			<Snippet></Snippet>
			<description><![CDATA[<br>Source: Wikipedia article <a href="https://fr.wikipedia.org/wiki/Barre_des_Écrins">Barre des Écrins</a>]]></description>
		</Placemark>
		<Placemark>
			<name><![CDATA[Bauroux]]></name>
			<Point>
				<coordinates>6.71778,43.78111,0</coordinates>
			</Point>
			<Snippet></Snippet>
			<description><![CDATA[<br>Source: Wikipedia article <a href="https://fr.wikipedia.org/wiki/Bauroux">Bauroux</a>]]></description>
		</Placemark>
		<Placemark>
			<name><![CDATA[Bec Charvet]]></name>
			<Point>
				<coordinates>5.82861,45.29639,0</coordinates>
			</Point>
			<Snippet></Snippet>
			<description><![CDATA[<br>Source: Wikipedia article <a href="https://fr.wikipedia.org/wiki/Bec_Charvet">Bec Charvet</a>]]></description>
		</Placemark>
		<Placemark>
			<name><![CDATA[Bec de Neurre]]></name>
			<Point>
				<coordinates>5.47333,45.16361,0</coordinates>
			</Point>
			<Snippet></Snippet>
			<description><![CDATA[<br>Source: Wikipedia article <a href="https://fr.wikipedia.org/wiki/Bec_de_Neurre">Bec de Neurre</a>]]></description>
		</Placemark>
		<Placemark>
			<name><![CDATA[Bec de l'Orient]]></name>
			<Point>
				<coordinates>5.5472,45.23472,0</coordinates>
			</Point>
			<Snippet></Snippet>
			<description><![CDATA[<br>Source: Wikipedia article <a href="https://fr.wikipedia.org/wiki/Bec_de_l'Orient">Bec de l'Orient</a>]]></description>
		</Placemark>
		<Placemark>
			<name><![CDATA[Bec de l'Échaillon]]></name>
			<Point>
				<coordinates>5.6025,45.29833,0</coordinates>
			</Point>
			<Snippet></Snippet>
			<description><![CDATA[<br>Source: Wikipedia article <a href="https://fr.wikipedia.org/wiki/Bec_de_l'Échaillon">Bec de l'Échaillon</a>]]></description>
		</Placemark>
		<Placemark>
			<name><![CDATA[Bellecôte]]></name>
			<Point>
				<coordinates>6.78222,45.49278,0</coordinates>
			</Point>
			<Snippet></Snippet>
			<description><![CDATA[<br>Source: Wikipedia article <a href="https://fr.wikipedia.org/wiki/Bellecôte">Bellecôte</a>]]></description>
		</Placemark>
		<Placemark>
			<name><![CDATA[Bessanèse]]></name>
			<Point>
				<coordinates>7.11667,45.3,0</coordinates>
			</Point>
			<Snippet></Snippet>
			<description><![CDATA[<br>Source: Wikipedia article <a href="https://fr.wikipedia.org/wiki/Bessanèse">Bessanèse</a>]]></description>
		</Placemark>
		<Placemark>
			<name><![CDATA[Blayeul]]></name>
			<Point>
				<coordinates>6.31167,44.24694,0</coordinates>
			</Point>
			<Snippet></Snippet>
			<description><![CDATA[<br>Source: Wikipedia article <a href="https://fr.wikipedia.org/wiki/Blayeul">Blayeul</a>]]></description>
		</Placemark>
		<Placemark>
			<name><![CDATA[Brec de Chambeyron]]></name>
			<Point>
				<coordinates>6.8528,44.52694,0</coordinates>
			</Point>
			<Snippet></Snippet>
			<description><![CDATA[<br>Source: Wikipedia article <a href="https://fr.wikipedia.org/wiki/Brec_de_Chambeyron">Brec de Chambeyron</a>]]></description>
		</Placemark>
		<Placemark>
			<name><![CDATA[Bric Froid]]></name>
			<Point>
				<coordinates>6.9313888889,44.8636111111,0</coordinates>
			</Point>
			<Snippet></Snippet>
			<description><![CDATA[<br>Source: Wikipedia article <a href="https://fr.wikipedia.org/wiki/Bric_Froid">Bric Froid</a>]]></description>
		</Placemark>
		<Placemark>
			<name><![CDATA[Bric de Rubren]]></name>
			<Point>
				<coordinates>6.94972,44.61972,0</coordinates>
			</Point>
			<Snippet></Snippet>
			<description><![CDATA[<br>Source: Wikipedia article <a href="https://fr.wikipedia.org/wiki/Bric_de_Rubren">Bric de Rubren</a>]]></description>
		</Placemark>
		<Placemark>
			<name><![CDATA[Caïres de Cougourde]]></name>
			<Point>
				<coordinates>7.34583,44.13639,0</coordinates>
			</Point>
			<Snippet></Snippet>
			<description><![CDATA[<br>Source: Wikipedia article <a href="https://fr.wikipedia.org/wiki/Caïres_de_Cougourde">Caïres de Cougourde</a>]]></description>
		</Placemark>
		<Placemark>
			<name><![CDATA[Chamechaude]]></name>
			<Point>
				<coordinates>5.78806,45.2875,0</coordinates>
			</Point>
			<Snippet></Snippet>
			<description><![CDATA[<br>Source: Wikipedia article <a href="https://fr.wikipedia.org/wiki/Chamechaude">Chamechaude</a>]]></description>
		</Placemark>
		<Placemark>
			<name><![CDATA[Chapeau de Gendarme (montagne)]]></name>
			<Point>
				<coordinates>6.665,44.33722,0</coordinates>
			</Point>
			<Snippet></Snippet>
			<description><![CDATA[<br>Source: Wikipedia article <a href="https://fr.wikipedia.org/wiki/Chapeau_de_Gendarme_(montagne)">Chapeau de Gendarme (montagne)</a>]]></description>
		</Placemark>
		<Placemark>
			<name><![CDATA[Charmant Som]]></name>
			<Point>
				<coordinates>5.76417,45.32528,0</coordinates>
			</Point>
			<Snippet></Snippet>
			<description><![CDATA[<br>Source: Wikipedia article <a href="https://fr.wikipedia.org/wiki/Charmant_Som">Charmant Som</a>]]></description>
		</Placemark>
		<Placemark>
			<name><![CDATA[Cheval Noir]]></name>
			<Point>
				<coordinates>6.41361,45.42194,0</coordinates>
			</Point>
			<Snippet></Snippet>
			<description><![CDATA[<br>Source: Wikipedia article <a href="https://fr.wikipedia.org/wiki/Cheval_Noir">Cheval Noir</a>]]></description>
		</Placemark>
		<Placemark>
			<name><![CDATA[Château d'Oche (montagne)]]></name>
			<Point>
				<coordinates>6.74306,46.35,0</coordinates>
			</Point>
			<Snippet></Snippet>
			<description><![CDATA[<br>Source: Wikipedia article <a href="https://fr.wikipedia.org/wiki/Château_d'Oche_(montagne)">Château d'Oche (montagne)</a>]]></description>
		</Placemark>
		<Placemark>
			<name><![CDATA[Cime Gardoria]]></name>
			<Point>
				<coordinates>6.7361,45.13833,0</coordinates>
			</Point>
			<Snippet></Snippet>
			<description><![CDATA[<br>Source: Wikipedia article <a href="https://fr.wikipedia.org/wiki/Cime_Gardoria">Cime Gardoria</a>]]></description>
		</Placemark>
		<Placemark>
			<name><![CDATA[Cime Guilié]]></name>
			<Point>
				<coordinates>7.31056,44.1475,0</coordinates>
			</Point>
			<Snippet></Snippet>
			<description><![CDATA[<br>Source: Wikipedia article <a href="https://fr.wikipedia.org/wiki/Cime_Guilié">Cime Guilié</a>]]></description>
		</Placemark>
		<Placemark>
			<name><![CDATA[Cime de Baissette]]></name>
			<Point>
				<coordinates>7.31083,44.13639,0</coordinates>
			</Point>
			<Snippet></Snippet>
			<description><![CDATA[<br>Source: Wikipedia article <a href="https://fr.wikipedia.org/wiki/Cime_de_Baissette">Cime de Baissette</a>]]></description>
		</Placemark>
		<Placemark>
			<name><![CDATA[Cime de Caron]]></name>
			<Point>
				<coordinates>6.56167,45.26306,0</coordinates>
			</Point>
			<Snippet></Snippet>
			<description><![CDATA[<br>Source: Wikipedia article <a href="https://fr.wikipedia.org/wiki/Cime_de_Caron">Cime de Caron</a>]]></description>
		</Placemark>
		<Placemark>
			<name><![CDATA[Cime de Frémamorte]]></name>
			<Point>
				<coordinates>7.25056,44.15694,0</coordinates>
			</Point>
			<Snippet></Snippet>
			<description><![CDATA[<br>Source: Wikipedia article <a href="https://fr.wikipedia.org/wiki/Cime_de_Frémamorte">Cime de Frémamorte</a>]]></description>
		</Placemark>
		<Placemark>
			<name><![CDATA[Cime de Peïra-Cava]]></name>
			<Point>
				<coordinates>7.37,43.93944,0</coordinates>
			</Point>
			<Snippet></Snippet>
			<description><![CDATA[<br>Source: Wikipedia article <a href="https://fr.wikipedia.org/wiki/Cime_de_Peïra-Cava">Cime de Peïra-Cava</a>]]></description>
		</Placemark>
		<Placemark>
			<name><![CDATA[Cime de Sistron]]></name>
			<Point>
				<coordinates>7.1242,44.173,0</coordinates>
			</Point>
			<Snippet></Snippet>
			<description><![CDATA[<br>Source: Wikipedia article <a href="https://fr.wikipedia.org/wiki/Cime_de_Sistron">Cime de Sistron</a>]]></description>
		</Placemark>
		<Placemark>
			<name><![CDATA[Cime de l'Agnel]]></name>
			<Point>
				<coordinates>7.34056,44.14583,0</coordinates>
			</Point>
			<Snippet></Snippet>
			<description><![CDATA[<br>Source: Wikipedia article <a href="https://fr.wikipedia.org/wiki/Cime_de_l'Agnel">Cime de l'Agnel</a>]]></description>
		</Placemark>
		<Placemark>
			<name><![CDATA[Cime de l'Encoula]]></name>
			<Point>
				<coordinates>6.28333,44.905,0</coordinates>
			</Point>
			<Snippet></Snippet>
			<description><![CDATA[<br>Source: Wikipedia article <a href="https://fr.wikipedia.org/wiki/Cime_de_l'Encoula">Cime de l'Encoula</a>]]></description>
		</Placemark>
		<Placemark>
			<name><![CDATA[Cime de la Bonette]]></name>
			<Point>
				<coordinates>6.80694,44.32167,0</coordinates>
			</Point>
			<Snippet></Snippet>
			<description><![CDATA[<br>Source: Wikipedia article <a href="https://fr.wikipedia.org/wiki/Cime_de_la_Bonette">Cime de la Bonette</a>]]></description>
		</Placemark>
		<Placemark>
			<name><![CDATA[Cime de la Lombarde]]></name>
			<Point>
				<coordinates>7.16306,44.2083,0</coordinates>
			</Point>
			<Snippet></Snippet>
			<description><![CDATA[<br>Source: Wikipedia article <a href="https://fr.wikipedia.org/wiki/Cime_de_la_Lombarde">Cime de la Lombarde</a>]]></description>
		</Placemark>
		<Placemark>
			<name><![CDATA[Cime de la Malédie]]></name>
			<Point>
				<coordinates>7.39833,44.1222,0</coordinates>
			</Point>
			<Snippet></Snippet>
			<description><![CDATA[<br>Source: Wikipedia article <a href="https://fr.wikipedia.org/wiki/Cime_de_la_Malédie">Cime de la Malédie</a>]]></description>
		</Placemark>
		<Placemark>
			<name><![CDATA[Cime du Diable]]></name>
			<Point>
				<coordinates>7.42333,44.04917,0</coordinates>
			</Point>
			<Snippet></Snippet>
			<description><![CDATA[<br>Source: Wikipedia article <a href="https://fr.wikipedia.org/wiki/Cime_du_Diable">Cime du Diable</a>]]></description>
		</Placemark>
		<Placemark>
			<name><![CDATA[Cime du Grand Vallon]]></name>
			<Point>
				<coordinates>6.71167,45.14472,0</coordinates>
			</Point>
			<Snippet></Snippet>
			<description><![CDATA[<br>Source: Wikipedia article <a href="https://fr.wikipedia.org/wiki/Cime_du_Grand_Vallon">Cime du Grand Vallon</a>]]></description>
		</Placemark>
		<Placemark>
			<name><![CDATA[Cime du Gélas]]></name>
			<Point>
				<coordinates>7.38389,44.12278,0</coordinates>
			</Point>
			<Snippet></Snippet>
			<description><![CDATA[<br>Source: Wikipedia article <a href="https://fr.wikipedia.org/wiki/Cime_du_Gélas">Cime du Gélas</a>]]></description>
		</Placemark>
		<Placemark>
			<name><![CDATA[Cime du Mercantour]]></name>
			<Point>
				<coordinates>7.29556,44.14389,0</coordinates>
			</Point>
			<Snippet></Snippet>
			<description><![CDATA[<br>Source: Wikipedia article <a href="https://fr.wikipedia.org/wiki/Cime_du_Mercantour">Cime du Mercantour</a>]]></description>
		</Placemark>
		<Placemark>
			<name><![CDATA[Cimet]]></name>
			<Point>
				<coordinates>6.70417,44.29056,0</coordinates>
			</Point>
			<Snippet></Snippet>
			<description><![CDATA[<br>Source: Wikipedia article <a href="https://fr.wikipedia.org/wiki/Cimet">Cimet</a>]]></description>
		</Placemark>
		<Placemark>
			<name><![CDATA[Colline de Lémenc]]></name>
			<Point>
				<coordinates>5.9325,45.59556,0</coordinates>
			</Point>
			<Snippet></Snippet>
			<description><![CDATA[<br>Source: Wikipedia article <a href="https://fr.wikipedia.org/wiki/Colline_de_Lémenc">Colline de Lémenc</a>]]></description>
		</Placemark>
		<Placemark>
			<name><![CDATA[Connex (sommet)]]></name>
			<Point>
				<coordinates>5.7417,45.04611,0</coordinates>
			</Point>
			<Snippet></Snippet>
			<description><![CDATA[<br>Source: Wikipedia article <a href="https://fr.wikipedia.org/wiki/Connex_(sommet)">Connex (sommet)</a>]]></description>
		</Placemark>
		<Placemark>
			<name><![CDATA[Corne au Taureau]]></name>
			<Point>
				<coordinates>6.80944,46.12722,0</coordinates>
			</Point>
			<Snippet></Snippet>
			<description><![CDATA[<br>Source: Wikipedia article <a href="https://fr.wikipedia.org/wiki/Corne_au_Taureau">Corne au Taureau</a>]]></description>
		</Placemark>
		<Placemark>
			<name><![CDATA[Cornebois]]></name>
			<Point>
				<coordinates>6.80889,46.21139,0</coordinates>
			</Point>
			<Snippet></Snippet>
			<description><![CDATA[<br>Source: Wikipedia article <a href="https://fr.wikipedia.org/wiki/Cornebois">Cornebois</a>]]></description>
		</Placemark>
		<Placemark>
			<name><![CDATA[Cornettes de Bise]]></name>
			<Point>
				<coordinates>6.78444,46.3325,0</coordinates>
			</Point>
			<Snippet></Snippet>
			<description><![CDATA[<br>Source: Wikipedia article <a href="https://fr.wikipedia.org/wiki/Cornettes_de_Bise">Cornettes de Bise</a>]]></description>
		</Placemark>
		<Placemark>
			<name><![CDATA[Cousson]]></name>
			<Point>
				<coordinates>6.24,44.05361,0</coordinates>
			</Point>
			<Snippet></Snippet>
			<description><![CDATA[<br>Source: Wikipedia article <a href="https://fr.wikipedia.org/wiki/Cousson">Cousson</a>]]></description>
		</Placemark>
		<Placemark>
			<name><![CDATA[Cousson]]></name>
			<Point>
				<coordinates>6.23556,44.04417,0</coordinates>
			</Point>
			<Snippet></Snippet>
			<description><![CDATA[<br>Source: Wikipedia article <a href="https://fr.wikipedia.org/wiki/Cousson">Cousson</a>]]></description>
		</Placemark>
		<Placemark>
			<name><![CDATA[Croise Baulet]]></name>
			<Point>
				<coordinates>6.55222,45.89833,0</coordinates>
			</Point>
			<Snippet></Snippet>
			<description><![CDATA[<br>Source: Wikipedia article <a href="https://fr.wikipedia.org/wiki/Croise_Baulet">Croise Baulet</a>]]></description>
		</Placemark>
		<Placemark>
			<name><![CDATA[Croix Rousse (montagne)]]></name>
			<Point>
				<coordinates>7.13194,45.26083,0</coordinates>
			</Point>
			<Snippet></Snippet>
			<description><![CDATA[<br>Source: Wikipedia article <a href="https://fr.wikipedia.org/wiki/Croix_Rousse_(montagne)">Croix Rousse (montagne)</a>]]></description>
		</Placemark>
		<Placemark>
			<name><![CDATA[Croix de Belledonne]]></name>
			<Point>
				<coordinates>5.98833,45.16861,0</coordinates>
			</Point>
			<Snippet></Snippet>
			<description><![CDATA[<br>Source: Wikipedia article <a href="https://fr.wikipedia.org/wiki/Croix_de_Belledonne">Croix de Belledonne</a>]]></description>
		</Placemark>
		<Placemark>
			<name><![CDATA[Croix de Chamrousse]]></name>
			<Point>
				<coordinates>5.902472,45.125848,0</coordinates>
			</Point>
			<Snippet></Snippet>
			<description><![CDATA[<br>Source: Wikipedia article <a href="https://fr.wikipedia.org/wiki/Croix_de_Chamrousse">Croix de Chamrousse</a>]]></description>
		</Placemark>
		<Placemark>
			<name><![CDATA[Croix des Têtes]]></name>
			<Point>
				<coordinates>6.4425,45.26694,0</coordinates>
			</Point>
			<Snippet></Snippet>
			<description><![CDATA[<br>Source: Wikipedia article <a href="https://fr.wikipedia.org/wiki/Croix_des_Têtes">Croix des Têtes</a>]]></description>
		</Placemark>
		<Placemark>
			<name><![CDATA[Crêt Luisard]]></name>
			<Point>
				<coordinates>6.05444,45.31806,0</coordinates>
			</Point>
			<Snippet></Snippet>
			<description><![CDATA[<br>Source: Wikipedia article <a href="https://fr.wikipedia.org/wiki/Crêt_Luisard">Crêt Luisard</a>]]></description>
		</Placemark>
		<Placemark>
			<name><![CDATA[Crêt du Poulet]]></name>
			<Point>
				<coordinates>6.06,45.33,0</coordinates>
			</Point>
			<Snippet></Snippet>
			<description><![CDATA[<br>Source: Wikipedia article <a href="https://fr.wikipedia.org/wiki/Crêt_du_Poulet">Crêt du Poulet</a>]]></description>
		</Placemark>
		<Placemark>
			<name><![CDATA[Crêt du Rey]]></name>
			<Point>
				<coordinates>6.56583,45.60194,0</coordinates>
			</Point>
			<Snippet></Snippet>
			<description><![CDATA[<br>Source: Wikipedia article <a href="https://fr.wikipedia.org/wiki/Crêt_du_Rey">Crêt du Rey</a>]]></description>
		</Placemark>
		<Placemark>
			<name><![CDATA[Crête des Gittes]]></name>
			<Point>
				<coordinates>6.7083,45.71194,0</coordinates>
			</Point>
			<Snippet></Snippet>
			<description><![CDATA[<br>Source: Wikipedia article <a href="https://fr.wikipedia.org/wiki/Crête_des_Gittes">Crête des Gittes</a>]]></description>
		</Placemark>
		<Placemark>
			<name><![CDATA[Cuguyons]]></name>
			<Point>
				<coordinates>6.19972,43.67694,0</coordinates>
			</Point>
			<Snippet></Snippet>
			<description><![CDATA[<br>Source: Wikipedia article <a href="https://fr.wikipedia.org/wiki/Cuguyons">Cuguyons</a>]]></description>
		</Placemark>
		<Placemark>
			<name><![CDATA[Dent Parrachée]]></name>
			<Point>
				<coordinates>6.75611,45.29194,0</coordinates>
			</Point>
			<Snippet></Snippet>
			<description><![CDATA[<br>Source: Wikipedia article <a href="https://fr.wikipedia.org/wiki/Dent_Parrachée">Dent Parrachée</a>]]></description>
		</Placemark>
		<Placemark>
			<name><![CDATA[Dent d'Oche]]></name>
			<Point>
				<coordinates>6.73111,46.35306,0</coordinates>
			</Point>
			<Snippet></Snippet>
			<description><![CDATA[<br>Source: Wikipedia article <a href="https://fr.wikipedia.org/wiki/Dent_d'Oche">Dent d'Oche</a>]]></description>
		</Placemark>
		<Placemark>
			<name><![CDATA[Dent de Barme]]></name>
			<Point>
				<coordinates>6.84194,46.13194,0</coordinates>
			</Point>
			<Snippet></Snippet>
			<description><![CDATA[<br>Source: Wikipedia article <a href="https://fr.wikipedia.org/wiki/Dent_de_Barme">Dent de Barme</a>]]></description>
		</Placemark>
		<Placemark>
			<name><![CDATA[Dent de Cons]]></name>
			<Point>
				<coordinates>6.35111,45.72972,0</coordinates>
			</Point>
			<Snippet></Snippet>
			<description><![CDATA[<br>Source: Wikipedia article <a href="https://fr.wikipedia.org/wiki/Dent_de_Cons">Dent de Cons</a>]]></description>
		</Placemark>
		<Placemark>
			<name><![CDATA[Dent de Crolles]]></name>
			<Point>
				<coordinates>5.85528,45.30806,0</coordinates>
			</Point>
			<Snippet></Snippet>
			<description><![CDATA[<br>Source: Wikipedia article <a href="https://fr.wikipedia.org/wiki/Dent_de_Crolles">Dent de Crolles</a>]]></description>
		</Placemark>
		<Placemark>
			<name><![CDATA[Dent de Moirans]]></name>
			<Point>
				<coordinates>5.59556,45.2875,0</coordinates>
			</Point>
			<Snippet></Snippet>
			<description><![CDATA[<br>Source: Wikipedia article <a href="https://fr.wikipedia.org/wiki/Dent_de_Moirans">Dent de Moirans</a>]]></description>
		</Placemark>
		<Placemark>
			<name><![CDATA[Dent de l'Ours]]></name>
			<Point>
				<coordinates>5.82083,45.38861,0</coordinates>
			</Point>
			<Snippet></Snippet>
			<description><![CDATA[<br>Source: Wikipedia article <a href="https://fr.wikipedia.org/wiki/Dent_de_l'Ours">Dent de l'Ours</a>]]></description>
		</Placemark>
		<Placemark>
			<name><![CDATA[Dent du Caïman]]></name>
			<Point>
				<coordinates>6.90889,45.8944,0</coordinates>
			</Point>
			<Snippet></Snippet>
			<description><![CDATA[<br>Source: Wikipedia article <a href="https://fr.wikipedia.org/wiki/Dent_du_Caïman">Dent du Caïman</a>]]></description>
		</Placemark>
		<Placemark>
			<name><![CDATA[Dent du Crocodile]]></name>
			<Point>
				<coordinates>6.9075,45.89278,0</coordinates>
			</Point>
			<Snippet></Snippet>
			<description><![CDATA[<br>Source: Wikipedia article <a href="https://fr.wikipedia.org/wiki/Dent_du_Crocodile">Dent du Crocodile</a>]]></description>
		</Placemark>
		<Placemark>
			<name><![CDATA[Dent du Géant]]></name>
			<Point>
				<coordinates>6.95167,45.86194,0</coordinates>
			</Point>
			<Snippet></Snippet>
			<description><![CDATA[<br>Source: Wikipedia article <a href="https://fr.wikipedia.org/wiki/Dent_du_Géant">Dent du Géant</a>]]></description>
		</Placemark>
		<Placemark>
			<name><![CDATA[Dent du Requin]]></name>
			<Point>
				<coordinates>6.9175,45.88778,0</coordinates>
			</Point>
			<Snippet></Snippet>
			<description><![CDATA[<br>Source: Wikipedia article <a href="https://fr.wikipedia.org/wiki/Dent_du_Requin">Dent du Requin</a>]]></description>
		</Placemark>
		<Placemark>
			<name><![CDATA[Dent du Vélan]]></name>
			<Point>
				<coordinates>6.77486,46.34723,0</coordinates>
			</Point>
			<Snippet></Snippet>
			<description><![CDATA[<br>Source: Wikipedia article <a href="https://fr.wikipedia.org/wiki/Dent_du_Vélan">Dent du Vélan</a>]]></description>
		</Placemark>
		<Placemark>
			<name><![CDATA[Dentelles de Montmirail]]></name>
			<Point>
				<coordinates>5.06056,44.17944,0</coordinates>
			</Point>
			<Snippet></Snippet>
			<description><![CDATA[<br>Source: Wikipedia article <a href="https://fr.wikipedia.org/wiki/Dentelles_de_Montmirail">Dentelles de Montmirail</a>]]></description>
		</Placemark>
		<Placemark>
			<name><![CDATA[Château du Barroux]]></name>
			<Point>
				<coordinates>5.09944,44.13694,0</coordinates>
			</Point>
			<Snippet></Snippet>
			<description><![CDATA[<br>Source: Wikipedia article <a href="https://fr.wikipedia.org/wiki/Dentelles_de_Montmirail">Dentelles de Montmirail</a>]]></description>
		</Placemark>
		<Placemark>
			<name><![CDATA[Église Saint-Jean-Baptiste du Barroux]]></name>
			<Point>
				<coordinates>5.099924,44.136328,0</coordinates>
			</Point>
			<Snippet></Snippet>
			<description><![CDATA[<br>Source: Wikipedia article <a href="https://fr.wikipedia.org/wiki/Dentelles_de_Montmirail">Dentelles de Montmirail</a>]]></description>
		</Placemark>
		<Placemark>
			<name><![CDATA[Moulin à huile communal du Barroux]]></name>
			<Point>
				<coordinates>5.100325,44.137204,0</coordinates>
			</Point>
			<Snippet></Snippet>
			<description><![CDATA[<br>Source: Wikipedia article <a href="https://fr.wikipedia.org/wiki/Dentelles_de_Montmirail">Dentelles de Montmirail</a>]]></description>
		</Placemark>
		<Placemark>
			<name><![CDATA[Chapelle Notre-Dame d'Aubune]]></name>
			<Point>
				<coordinates>5.01217,44.12327,0</coordinates>
			</Point>
			<Snippet></Snippet>
			<description><![CDATA[<br>Source: Wikipedia article <a href="https://fr.wikipedia.org/wiki/Dentelles_de_Montmirail">Dentelles de Montmirail</a>]]></description>
		</Placemark>
		<Placemark>
			<name><![CDATA[Fontaine de Beaumes-de-Venise]]></name>
			<Point>
				<coordinates>5.028652,44.121645,0</coordinates>
			</Point>
			<Snippet></Snippet>
			<description><![CDATA[<br>Source: Wikipedia article <a href="https://fr.wikipedia.org/wiki/Dentelles_de_Montmirail">Dentelles de Montmirail</a>]]></description>
		</Placemark>
		<Placemark>
			<name><![CDATA[Atelier de Claude et François Stahly]]></name>
			<Point>
				<coordinates>5.064475,44.199309,0</coordinates>
			</Point>
			<Snippet></Snippet>
			<description><![CDATA[<br>Source: Wikipedia article <a href="https://fr.wikipedia.org/wiki/Dentelles_de_Montmirail">Dentelles de Montmirail</a>]]></description>
		</Placemark>
		<Placemark>
			<name><![CDATA[Église Saint-Sauveur-et-Saint-Sixte de Crestet]]></name>
			<Point>
				<coordinates>5.08387,44.21671,0</coordinates>
			</Point>
			<Snippet></Snippet>
			<description><![CDATA[<br>Source: Wikipedia article <a href="https://fr.wikipedia.org/wiki/Dentelles_de_Montmirail">Dentelles de Montmirail</a>]]></description>
		</Placemark>
		<Placemark>
			<name><![CDATA[Fontaine des Mascarons (Séguret)]]></name>
			<Point>
				<coordinates>5.023595,44.205744,0</coordinates>
			</Point>
			<Snippet></Snippet>
			<description><![CDATA[<br>Source: Wikipedia article <a href="https://fr.wikipedia.org/wiki/Dentelles_de_Montmirail">Dentelles de Montmirail</a>]]></description>
		</Placemark>
		<Placemark>
			<name><![CDATA[Dents d'Ambin]]></name>
			<Point>
				<coordinates>6.89328,45.16927,0</coordinates>
			</Point>
			<Snippet></Snippet>
			<description><![CDATA[<br>Source: Wikipedia article <a href="https://fr.wikipedia.org/wiki/Dents_d'Ambin">Dents d'Ambin</a>]]></description>
		</Placemark>
		<Placemark>
			<name><![CDATA[Dents de Lanfon]]></name>
			<Point>
				<coordinates>6.2417,45.8611,0</coordinates>
			</Point>
			<Snippet></Snippet>
			<description><![CDATA[<br>Source: Wikipedia article <a href="https://fr.wikipedia.org/wiki/Dents_de_Lanfon">Dents de Lanfon</a>]]></description>
		</Placemark>
		<Placemark>
			<name><![CDATA[Dôme de Barrot]]></name>
			<Point>
				<coordinates>6.91667,44.03667,0</coordinates>
			</Point>
			<Snippet></Snippet>
			<description><![CDATA[<br>Source: Wikipedia article <a href="https://fr.wikipedia.org/wiki/Dôme_de_Barrot">Dôme de Barrot</a>]]></description>
		</Placemark>
		<Placemark>
			<name><![CDATA[Dôme de Bellefont]]></name>
			<Point>
				<coordinates>5.88111,45.34194,0</coordinates>
			</Point>
			<Snippet></Snippet>
			<description><![CDATA[<br>Source: Wikipedia article <a href="https://fr.wikipedia.org/wiki/Dôme_de_Bellefont">Dôme de Bellefont</a>]]></description>
		</Placemark>
		<Placemark>
			<name><![CDATA[Dôme de Chasseforêt]]></name>
			<Point>
				<coordinates>6.76056,45.3306,0</coordinates>
			</Point>
			<Snippet></Snippet>
			<description><![CDATA[<br>Source: Wikipedia article <a href="https://fr.wikipedia.org/wiki/Dôme_de_Chasseforêt">Dôme de Chasseforêt</a>]]></description>
		</Placemark>
		<Placemark>
			<name><![CDATA[Dôme de Monêtier]]></name>
			<Point>
				<coordinates>6.4525,44.93083,0</coordinates>
			</Point>
			<Snippet></Snippet>
			<description><![CDATA[<br>Source: Wikipedia article <a href="https://fr.wikipedia.org/wiki/Dôme_de_Monêtier">Dôme de Monêtier</a>]]></description>
		</Placemark>
		<Placemark>
			<name><![CDATA[Dôme de Polset]]></name>
			<Point>
				<coordinates>6.64028,45.27639,0</coordinates>
			</Point>
			<Snippet></Snippet>
			<description><![CDATA[<br>Source: Wikipedia article <a href="https://fr.wikipedia.org/wiki/Dôme_de_Polset">Dôme de Polset</a>]]></description>
		</Placemark>
		<Placemark>
			<name><![CDATA[Dôme de Rochefort]]></name>
			<Point>
				<coordinates>6.9675,45.86417,0</coordinates>
			</Point>
			<Snippet></Snippet>
			<description><![CDATA[<br>Source: Wikipedia article <a href="https://fr.wikipedia.org/wiki/Dôme_de_Rochefort">Dôme de Rochefort</a>]]></description>
		</Placemark>
		<Placemark>
			<name><![CDATA[Dôme de l'Arpont]]></name>
			<Point>
				<coordinates>6.74278,45.31861,0</coordinates>
			</Point>
			<Snippet></Snippet>
			<description><![CDATA[<br>Source: Wikipedia article <a href="https://fr.wikipedia.org/wiki/Dôme_de_l'Arpont">Dôme de l'Arpont</a>]]></description>
		</Placemark>
		<Placemark>
			<name><![CDATA[Dôme de la Sache]]></name>
			<Point>
				<coordinates>6.87056,45.5111,0</coordinates>
			</Point>
			<Snippet></Snippet>
			<description><![CDATA[<br>Source: Wikipedia article <a href="https://fr.wikipedia.org/wiki/Dôme_de_la_Sache">Dôme de la Sache</a>]]></description>
		</Placemark>
		<Placemark>
			<name><![CDATA[Dôme de neige des Écrins]]></name>
			<Point>
				<coordinates>6.35389,44.92444,0</coordinates>
			</Point>
			<Snippet></Snippet>
			<description><![CDATA[<br>Source: Wikipedia article <a href="https://fr.wikipedia.org/wiki/Dôme_de_neige_des_Écrins">Dôme de neige des Écrins</a>]]></description>
		</Placemark>
		<Placemark>
			<name><![CDATA[Dôme des Nants]]></name>
			<Point>
				<coordinates>6.74139,45.32639,0</coordinates>
			</Point>
			<Snippet></Snippet>
			<description><![CDATA[<br>Source: Wikipedia article <a href="https://fr.wikipedia.org/wiki/Dôme_des_Nants">Dôme des Nants</a>]]></description>
		</Placemark>
		<Placemark>
			<name><![CDATA[Dôme des Pichères]]></name>
			<Point>
				<coordinates>6.79833,45.4917,0</coordinates>
			</Point>
			<Snippet></Snippet>
			<description><![CDATA[<br>Source: Wikipedia article <a href="https://fr.wikipedia.org/wiki/Dôme_des_Pichères">Dôme des Pichères</a>]]></description>
		</Placemark>
		<Placemark>
			<name><![CDATA[Dôme des Platières]]></name>
			<Point>
				<coordinates>6.8639,45.5075,0</coordinates>
			</Point>
			<Snippet></Snippet>
			<description><![CDATA[<br>Source: Wikipedia article <a href="https://fr.wikipedia.org/wiki/Dôme_des_Platières">Dôme des Platières</a>]]></description>
		</Placemark>
		<Placemark>
			<name><![CDATA[Dôme des Sonnailles]]></name>
			<Point>
				<coordinates>6.74556,45.34583,0</coordinates>
			</Point>
			<Snippet></Snippet>
			<description><![CDATA[<br>Source: Wikipedia article <a href="https://fr.wikipedia.org/wiki/Dôme_des_Sonnailles">Dôme des Sonnailles</a>]]></description>
		</Placemark>
		<Placemark>
			<name><![CDATA[Dôme du Goûter]]></name>
			<Point>
				<coordinates>6.84333,45.84278,0</coordinates>
			</Point>
			<Snippet></Snippet>
			<description><![CDATA[<br>Source: Wikipedia article <a href="https://fr.wikipedia.org/wiki/Dôme_du_Goûter">Dôme du Goûter</a>]]></description>
		</Placemark>
		<Placemark>
			<name><![CDATA[Dômes de Miage]]></name>
			<Point>
				<coordinates>6.8,45.81583,0</coordinates>
			</Point>
			<Snippet></Snippet>
			<description><![CDATA[<br>Source: Wikipedia article <a href="https://fr.wikipedia.org/wiki/Dômes_de_Miage">Dômes de Miage</a>]]></description>
		</Placemark>
		<Placemark>
			<name><![CDATA[Fort Carra]]></name>
			<Point>
				<coordinates>6.8075,44.24556,0</coordinates>
			</Point>
			<Snippet></Snippet>
			<description><![CDATA[<br>Source: Wikipedia article <a href="https://fr.wikipedia.org/wiki/Fort_Carra">Fort Carra</a>]]></description>
		</Placemark>
		<Placemark>
			<name><![CDATA[Goléon]]></name>
			<Point>
				<coordinates>6.32639,45.10361,0</coordinates>
			</Point>
			<Snippet></Snippet>
			<description><![CDATA[<br>Source: Wikipedia article <a href="https://fr.wikipedia.org/wiki/Goléon">Goléon</a>]]></description>
		</Placemark>
		<Placemark>
			<name><![CDATA[Grand Arc]]></name>
			<Point>
				<coordinates>6.36472,45.56639,0</coordinates>
			</Point>
			<Snippet></Snippet>
			<description><![CDATA[<br>Source: Wikipedia article <a href="https://fr.wikipedia.org/wiki/Grand_Arc">Grand Arc</a>]]></description>
		</Placemark>
		<Placemark>
			<name><![CDATA[Grand Armet]]></name>
			<Point>
				<coordinates>5.93444,44.98111,0</coordinates>
			</Point>
			<Snippet></Snippet>
			<description><![CDATA[<br>Source: Wikipedia article <a href="https://fr.wikipedia.org/wiki/Grand_Armet">Grand Armet</a>]]></description>
		</Placemark>
		<Placemark>
			<name><![CDATA[Grand Aréa]]></name>
			<Point>
				<coordinates>6.57278,44.98,0</coordinates>
			</Point>
			<Snippet></Snippet>
			<description><![CDATA[<br>Source: Wikipedia article <a href="https://fr.wikipedia.org/wiki/Grand_Aréa">Grand Aréa</a>]]></description>
		</Placemark>
		<Placemark>
			<name><![CDATA[Grand Assaly]]></name>
			<Point>
				<coordinates>6.97028,45.65417,0</coordinates>
			</Point>
			<Snippet></Snippet>
			<description><![CDATA[<br>Source: Wikipedia article <a href="https://fr.wikipedia.org/wiki/Grand_Assaly">Grand Assaly</a>]]></description>
		</Placemark>
		<Placemark>
			<name><![CDATA[Grand Bec]]></name>
			<Point>
				<coordinates>6.7528,45.42361,0</coordinates>
			</Point>
			<Snippet></Snippet>
			<description><![CDATA[<br>Source: Wikipedia article <a href="https://fr.wikipedia.org/wiki/Grand_Bec">Grand Bec</a>]]></description>
		</Placemark>
		<Placemark>
			<name><![CDATA[Grand Bérard]]></name>
			<Point>
				<coordinates>6.66,44.44944,0</coordinates>
			</Point>
			<Snippet></Snippet>
			<description><![CDATA[<br>Source: Wikipedia article <a href="https://fr.wikipedia.org/wiki/Grand_Bérard">Grand Bérard</a>]]></description>
		</Placemark>
		<Placemark>
			<name><![CDATA[Grand Capelet]]></name>
			<Point>
				<coordinates>7.42722,44.07833,0</coordinates>
			</Point>
			<Snippet></Snippet>
			<description><![CDATA[<br>Source: Wikipedia article <a href="https://fr.wikipedia.org/wiki/Grand_Capelet">Grand Capelet</a>]]></description>
		</Placemark>
		<Placemark>
			<name><![CDATA[Grand Capucin]]></name>
			<Point>
				<coordinates>6.89806,45.85167,0</coordinates>
			</Point>
			<Snippet></Snippet>
			<description><![CDATA[<br>Source: Wikipedia article <a href="https://fr.wikipedia.org/wiki/Grand_Capucin">Grand Capucin</a>]]></description>
		</Placemark>
		<Placemark>
			<name><![CDATA[Grand Charnier d'Allemond]]></name>
			<Point>
				<coordinates>5.99667,45.155,0</coordinates>
			</Point>
			<Snippet></Snippet>
			<description><![CDATA[<br>Source: Wikipedia article <a href="https://fr.wikipedia.org/wiki/Grand_Charnier_d'Allemond">Grand Charnier d'Allemond</a>]]></description>
		</Placemark>
		<Placemark>
			<name><![CDATA[Grand Cheval de Bois]]></name>
			<Point>
				<coordinates>6.63333,44.29194,0</coordinates>
			</Point>
			<Snippet></Snippet>
			<description><![CDATA[<br>Source: Wikipedia article <a href="https://fr.wikipedia.org/wiki/Grand_Cheval_de_Bois">Grand Cheval de Bois</a>]]></description>
		</Placemark>
		<Placemark>
			<name><![CDATA[Grand Coyer]]></name>
			<Point>
				<coordinates>6.68972,44.10028,0</coordinates>
			</Point>
			<Snippet></Snippet>
			<description><![CDATA[<br>Source: Wikipedia article <a href="https://fr.wikipedia.org/wiki/Grand_Coyer">Grand Coyer</a>]]></description>
		</Placemark>
		<Placemark>
			<name><![CDATA[Grand Ferrand]]></name>
			<Point>
				<coordinates>5.815,44.72194,0</coordinates>
			</Point>
			<Snippet></Snippet>
			<description><![CDATA[<br>Source: Wikipedia article <a href="https://fr.wikipedia.org/wiki/Grand_Ferrand">Grand Ferrand</a>]]></description>
		</Placemark>
		<Placemark>
			<name><![CDATA[Grand Galbert]]></name>
			<Point>
				<coordinates>5.95944,45.09056,0</coordinates>
			</Point>
			<Snippet></Snippet>
			<description><![CDATA[<br>Source: Wikipedia article <a href="https://fr.wikipedia.org/wiki/Grand_Galbert">Grand Galbert</a>]]></description>
		</Placemark>
		<Placemark>
			<name><![CDATA[Grand Galibier]]></name>
			<Point>
				<coordinates>6.43389,45.06417,0</coordinates>
			</Point>
			<Snippet></Snippet>
			<description><![CDATA[<br>Source: Wikipedia article <a href="https://fr.wikipedia.org/wiki/Grand_Galibier">Grand Galibier</a>]]></description>
		</Placemark>
		<Placemark>
			<name><![CDATA[Grand Glaiza]]></name>
			<Point>
				<coordinates>6.88194,44.84944,0</coordinates>
			</Point>
			<Snippet></Snippet>
			<description><![CDATA[<br>Source: Wikipedia article <a href="https://fr.wikipedia.org/wiki/Grand_Glaiza">Grand Glaiza</a>]]></description>
		</Placemark>
		<Placemark>
			<name><![CDATA[Grand Margès]]></name>
			<Point>
				<coordinates>6.27861,43.7556,0</coordinates>
			</Point>
			<Snippet></Snippet>
			<description><![CDATA[<br>Source: Wikipedia article <a href="https://fr.wikipedia.org/wiki/Grand_Margès">Grand Margès</a>]]></description>
		</Placemark>
		<Placemark>
			<name><![CDATA[Grand Mont]]></name>
			<Point>
				<coordinates>6.53667,45.63194,0</coordinates>
			</Point>
			<Snippet></Snippet>
			<description><![CDATA[<br>Source: Wikipedia article <a href="https://fr.wikipedia.org/wiki/Grand_Mont">Grand Mont</a>]]></description>
		</Placemark>
		<Placemark>
			<name><![CDATA[Grand Pinier]]></name>
			<Point>
				<coordinates>6.40139,44.72333,0</coordinates>
			</Point>
			<Snippet></Snippet>
			<description><![CDATA[<br>Source: Wikipedia article <a href="https://fr.wikipedia.org/wiki/Grand_Pinier">Grand Pinier</a>]]></description>
		</Placemark>
		<Placemark>
			<name><![CDATA[Grand Roc]]></name>
			<Point>
				<coordinates>6.68806,45.26556,0</coordinates>
			</Point>
			<Snippet></Snippet>
			<description><![CDATA[<br>Source: Wikipedia article <a href="https://fr.wikipedia.org/wiki/Grand_Roc">Grand Roc</a>]]></description>
		</Placemark>
		<Placemark>
			<name><![CDATA[Grand Rocher]]></name>
			<Point>
				<coordinates>6.05,45.30361,0</coordinates>
			</Point>
			<Snippet></Snippet>
			<description><![CDATA[<br>Source: Wikipedia article <a href="https://fr.wikipedia.org/wiki/Grand_Rocher">Grand Rocher</a>]]></description>
		</Placemark>
		<Placemark>
			<name><![CDATA[Grand Serre]]></name>
			<Point>
				<coordinates>5.82639,45.0056,0</coordinates>
			</Point>
			<Snippet></Snippet>
			<description><![CDATA[<br>Source: Wikipedia article <a href="https://fr.wikipedia.org/wiki/Grand_Serre">Grand Serre</a>]]></description>
		</Placemark>
		<Placemark>
			<name><![CDATA[Grand Som]]></name>
			<Point>
				<coordinates>5.81194,45.37056,0</coordinates>
			</Point>
			<Snippet></Snippet>
			<description><![CDATA[<br>Source: Wikipedia article <a href="https://fr.wikipedia.org/wiki/Grand_Som">Grand Som</a>]]></description>
		</Placemark>
		<Placemark>
			<name><![CDATA[Grand Veymont]]></name>
			<Point>
				<coordinates>5.52694,44.87,0</coordinates>
			</Point>
			<Snippet></Snippet>
			<description><![CDATA[<br>Source: Wikipedia article <a href="https://fr.wikipedia.org/wiki/Grand_Veymont">Grand Veymont</a>]]></description>
		</Placemark>
		<Placemark>
			<name><![CDATA[Grand pic de Belledonne]]></name>
			<Point>
				<coordinates>5.9917,45.17111,0</coordinates>
			</Point>
			<Snippet></Snippet>
			<description><![CDATA[<br>Source: Wikipedia article <a href="https://fr.wikipedia.org/wiki/Grand_pic_de_Belledonne">Grand pic de Belledonne</a>]]></description>
		</Placemark>
		<Placemark>
			<name><![CDATA[Grand pic de la Lauzière]]></name>
			<Point>
				<coordinates>6.36639,45.45917,0</coordinates>
			</Point>
			<Snippet></Snippet>
			<description><![CDATA[<br>Source: Wikipedia article <a href="https://fr.wikipedia.org/wiki/Grand_pic_de_la_Lauzière">Grand pic de la Lauzière</a>]]></description>
		</Placemark>
		<Placemark>
			<name><![CDATA[Grand roc Noir]]></name>
			<Point>
				<coordinates>6.8917,45.33028,0</coordinates>
			</Point>
			<Snippet></Snippet>
			<description><![CDATA[<br>Source: Wikipedia article <a href="https://fr.wikipedia.org/wiki/Grand_roc_Noir">Grand roc Noir</a>]]></description>
		</Placemark>
		<Placemark>
			<name><![CDATA[Grande Balmaz]]></name>
			<Point>
				<coordinates>6.49639,45.89306,0</coordinates>
			</Point>
			<Snippet></Snippet>
			<description><![CDATA[<br>Source: Wikipedia article <a href="https://fr.wikipedia.org/wiki/Grande_Balmaz">Grande Balmaz</a>]]></description>
		</Placemark>
		<Placemark>
			<name><![CDATA[Grande Bosse]]></name>
			<Point>
				<coordinates>6.85583,45.83528,0</coordinates>
			</Point>
			<Snippet></Snippet>
			<description><![CDATA[<br>Source: Wikipedia article <a href="https://fr.wikipedia.org/wiki/Grande_Bosse">Grande Bosse</a>]]></description>
		</Placemark>
		<Placemark>
			<name><![CDATA[Grande Casse]]></name>
			<Point>
				<coordinates>6.8275,45.40528,0</coordinates>
			</Point>
			<Snippet></Snippet>
			<description><![CDATA[<br>Source: Wikipedia article <a href="https://fr.wikipedia.org/wiki/Grande_Casse">Grande Casse</a>]]></description>
		</Placemark>
		<Placemark>
			<name><![CDATA[Grande Lance de Domène]]></name>
			<Point>
				<coordinates>5.95917,45.17139,0</coordinates>
			</Point>
			<Snippet></Snippet>
			<description><![CDATA[<br>Source: Wikipedia article <a href="https://fr.wikipedia.org/wiki/Grande_Lance_de_Domène">Grande Lance de Domène</a>]]></description>
		</Placemark>
		<Placemark>
			<name><![CDATA[Grande Lauzière]]></name>
			<Point>
				<coordinates>5.95889,45.15694,0</coordinates>
			</Point>
			<Snippet></Snippet>
			<description><![CDATA[<br>Source: Wikipedia article <a href="https://fr.wikipedia.org/wiki/Grande_Lauzière">Grande Lauzière</a>]]></description>
		</Placemark>
		<Placemark>
			<name><![CDATA[Grande Motte]]></name>
			<Point>
				<coordinates>6.87028,45.4111,0</coordinates>
			</Point>
			<Snippet></Snippet>
			<description><![CDATA[<br>Source: Wikipedia article <a href="https://fr.wikipedia.org/wiki/Grande_Motte">Grande Motte</a>]]></description>
		</Placemark>
		<Placemark>
			<name><![CDATA[Grande Moucherolle]]></name>
			<Point>
				<coordinates>5.56417,45.00528,0</coordinates>
			</Point>
			<Snippet></Snippet>
			<description><![CDATA[<br>Source: Wikipedia article <a href="https://fr.wikipedia.org/wiki/Grande_Moucherolle">Grande Moucherolle</a>]]></description>
		</Placemark>
		<Placemark>
			<name><![CDATA[Grande Parel]]></name>
			<Point>
				<coordinates>6.64222,45.62722,0</coordinates>
			</Point>
			<Snippet></Snippet>
			<description><![CDATA[<br>Source: Wikipedia article <a href="https://fr.wikipedia.org/wiki/Grande_Parel">Grande Parel</a>]]></description>
		</Placemark>
		<Placemark>
			<name><![CDATA[Grande Rocheuse]]></name>
			<Point>
				<coordinates>6.97278,45.93444,0</coordinates>
			</Point>
			<Snippet></Snippet>
			<description><![CDATA[<br>Source: Wikipedia article <a href="https://fr.wikipedia.org/wiki/Grande_Rocheuse">Grande Rocheuse</a>]]></description>
		</Placemark>
		<Placemark>
			<name><![CDATA[Grande Ruine]]></name>
			<Point>
				<coordinates>6.32889,44.9675,0</coordinates>
			</Point>
			<Snippet></Snippet>
			<description><![CDATA[<br>Source: Wikipedia article <a href="https://fr.wikipedia.org/wiki/Grande_Ruine">Grande Ruine</a>]]></description>
		</Placemark>
		<Placemark>
			<name><![CDATA[Grande Sure]]></name>
			<Point>
				<coordinates>5.70306,45.33528,0</coordinates>
			</Point>
			<Snippet></Snippet>
			<description><![CDATA[<br>Source: Wikipedia article <a href="https://fr.wikipedia.org/wiki/Grande_Sure">Grande Sure</a>]]></description>
		</Placemark>
		<Placemark>
			<name><![CDATA[Grande Séolane]]></name>
			<Point>
				<coordinates>6.54583,44.3375,0</coordinates>
			</Point>
			<Snippet></Snippet>
			<description><![CDATA[<br>Source: Wikipedia article <a href="https://fr.wikipedia.org/wiki/Grande_Séolane">Grande Séolane</a>]]></description>
		</Placemark>
		<Placemark>
			<name><![CDATA[Grande Tête de l'Obiou]]></name>
			<Point>
				<coordinates>5.83944,44.77528,0</coordinates>
			</Point>
			<Snippet></Snippet>
			<description><![CDATA[<br>Source: Wikipedia article <a href="https://fr.wikipedia.org/wiki/Grande_Tête_de_l'Obiou">Grande Tête de l'Obiou</a>]]></description>
		</Placemark>
		<Placemark>
			<name><![CDATA[Grande aiguille Rousse]]></name>
			<Point>
				<coordinates>7.1096,45.4329,0</coordinates>
			</Point>
			<Snippet></Snippet>
			<description><![CDATA[<br>Source: Wikipedia article <a href="https://fr.wikipedia.org/wiki/Grande_aiguille_Rousse">Grande aiguille Rousse</a>]]></description>
		</Placemark>
		<Placemark>
			<name><![CDATA[Grande aiguille de la Bérarde]]></name>
			<Point>
				<coordinates>6.2775,44.91611,0</coordinates>
			</Point>
			<Snippet></Snippet>
			<description><![CDATA[<br>Source: Wikipedia article <a href="https://fr.wikipedia.org/wiki/Grande_aiguille_de_la_Bérarde">Grande aiguille de la Bérarde</a>]]></description>
		</Placemark>
		<Placemark>
			<name><![CDATA[Grandes Jorasses]]></name>
			<Point>
				<coordinates>6.98806,45.86889,0</coordinates>
			</Point>
			<Snippet></Snippet>
			<description><![CDATA[<br>Source: Wikipedia article <a href="https://fr.wikipedia.org/wiki/Grandes_Jorasses">Grandes Jorasses</a>]]></description>
		</Placemark>
		<Placemark>
			<name><![CDATA[Grands Crêts]]></name>
			<Point>
				<coordinates>5.81361,45.27111,0</coordinates>
			</Point>
			<Snippet></Snippet>
			<description><![CDATA[<br>Source: Wikipedia article <a href="https://fr.wikipedia.org/wiki/Grands_Crêts">Grands Crêts</a>]]></description>
		</Placemark>
		<Placemark>
			<name><![CDATA[Grenier de Commune]]></name>
			<Point>
				<coordinates>6.83306,46.04556,0</coordinates>
			</Point>
			<Snippet></Snippet>
			<description><![CDATA[<br>Source: Wikipedia article <a href="https://fr.wikipedia.org/wiki/Grenier_de_Commune">Grenier de Commune</a>]]></description>
		</Placemark>
		<Placemark>
			<name><![CDATA[Gros Rognon]]></name>
			<Point>
				<coordinates>6.90444,45.86833,0</coordinates>
			</Point>
			<Snippet></Snippet>
			<description><![CDATA[<br>Source: Wikipedia article <a href="https://fr.wikipedia.org/wiki/Gros_Rognon">Gros Rognon</a>]]></description>
		</Placemark>
		<Placemark>
			<name><![CDATA[Grun de Saint-Maurice]]></name>
			<Point>
				<coordinates>6.05639,44.81583,0</coordinates>
			</Point>
			<Snippet></Snippet>
			<description><![CDATA[<br>Source: Wikipedia article <a href="https://fr.wikipedia.org/wiki/Grun_de_Saint-Maurice">Grun de Saint-Maurice</a>]]></description>
		</Placemark>
		<Placemark>
			<name><![CDATA[Haute-Pointe]]></name>
			<Point>
				<coordinates>6.54972,46.17528,0</coordinates>
			</Point>
			<Snippet></Snippet>
			<description><![CDATA[<br>Source: Wikipedia article <a href="https://fr.wikipedia.org/wiki/Haute-Pointe">Haute-Pointe</a>]]></description>
		</Placemark>
		<Placemark>
			<name><![CDATA[Hauts-Forts]]></name>
			<Point>
				<coordinates>6.7775,46.16861,0</coordinates>
			</Point>
			<Snippet></Snippet>
			<description><![CDATA[<br>Source: Wikipedia article <a href="https://fr.wikipedia.org/wiki/Hauts-Forts">Hauts-Forts</a>]]></description>
		</Placemark>
		<Placemark>
			<name><![CDATA[Hirmentaz]]></name>
			<Point>
				<coordinates>6.495,46.22972,0</coordinates>
			</Point>
			<Snippet></Snippet>
			<description><![CDATA[<br>Source: Wikipedia article <a href="https://fr.wikipedia.org/wiki/Hirmentaz">Hirmentaz</a>]]></description>
		</Placemark>
		<Placemark>
			<name><![CDATA[Jocou]]></name>
			<Point>
				<coordinates>5.6475,44.72444,0</coordinates>
			</Point>
			<Snippet></Snippet>
			<description><![CDATA[<br>Source: Wikipedia article <a href="https://fr.wikipedia.org/wiki/Jocou">Jocou</a>]]></description>
		</Placemark>
		<Placemark>
			<name><![CDATA[L'Ailefroide]]></name>
			<Point>
				<coordinates>6.35667,44.885,0</coordinates>
			</Point>
			<Snippet></Snippet>
			<description><![CDATA[<br>Source: Wikipedia article <a href="https://fr.wikipedia.org/wiki/L'Ailefroide">L'Ailefroide</a>]]></description>
		</Placemark>
		<Placemark>
			<name><![CDATA[L'Olan]]></name>
			<Point>
				<coordinates>6.19667,44.85889,0</coordinates>
			</Point>
			<Snippet></Snippet>
			<description><![CDATA[<br>Source: Wikipedia article <a href="https://fr.wikipedia.org/wiki/L'Olan">L'Olan</a>]]></description>
		</Placemark>
		<Placemark>
			<name><![CDATA[La Buffe]]></name>
			<Point>
				<coordinates>5.58417,45.24389,0</coordinates>
			</Point>
			<Snippet></Snippet>
			<description><![CDATA[<br>Source: Wikipedia article <a href="https://fr.wikipedia.org/wiki/La_Buffe">La Buffe</a>]]></description>
		</Placemark>
		<Placemark>
			<name><![CDATA[La Cochette]]></name>
			<Point>
				<coordinates>5.83556,45.45528,0</coordinates>
			</Point>
			<Snippet></Snippet>
			<description><![CDATA[<br>Source: Wikipedia article <a href="https://fr.wikipedia.org/wiki/La_Cochette">La Cochette</a>]]></description>
		</Placemark>
		<Placemark>
			<name><![CDATA[La Cucumelle]]></name>
			<Point>
				<coordinates>6.50889,44.93806,0</coordinates>
			</Point>
			<Snippet></Snippet>
			<description><![CDATA[<br>Source: Wikipedia article <a href="https://fr.wikipedia.org/wiki/La_Cucumelle">La Cucumelle</a>]]></description>
		</Placemark>
		<Placemark>
			<name><![CDATA[La Grande Pointe]]></name>
			<Point>
				<coordinates>6.58972,46.21806,0</coordinates>
			</Point>
			<Snippet></Snippet>
			<description><![CDATA[<br>Source: Wikipedia article <a href="https://fr.wikipedia.org/wiki/La_Grande_Pointe">La Grande Pointe</a>]]></description>
		</Placemark>
		<Placemark>
			<name><![CDATA[La Meije]]></name>
			<Point>
				<coordinates>6.30861,45.00472,0</coordinates>
			</Point>
			<Snippet></Snippet>
			<description><![CDATA[<br>Source: Wikipedia article <a href="https://fr.wikipedia.org/wiki/La_Meije">La Meije</a>]]></description>
		</Placemark>
		<Placemark>
			<name><![CDATA[La Miaz]]></name>
			<Point>
				<coordinates>6.538468,45.920459,0</coordinates>
			</Point>
			<Snippet></Snippet>
			<description><![CDATA[<br>Source: Wikipedia article <a href="https://fr.wikipedia.org/wiki/La_Miaz">La Miaz</a>]]></description>
		</Placemark>
		<Placemark>
			<name><![CDATA[La Scia]]></name>
			<Point>
				<coordinates>5.85083,45.34889,0</coordinates>
			</Point>
			<Snippet></Snippet>
			<description><![CDATA[<br>Source: Wikipedia article <a href="https://fr.wikipedia.org/wiki/La_Scia">La Scia</a>]]></description>
		</Placemark>
		<Placemark>
			<name><![CDATA[La Sure]]></name>
			<Point>
				<coordinates>5.59778,45.23528,0</coordinates>
			</Point>
			<Snippet></Snippet>
			<description><![CDATA[<br>Source: Wikipedia article <a href="https://fr.wikipedia.org/wiki/La_Sure">La Sure</a>]]></description>
		</Placemark>
		<Placemark>
			<name><![CDATA[La Tour Ronde]]></name>
			<Point>
				<coordinates>6.9075,45.84389,0</coordinates>
			</Point>
			<Snippet></Snippet>
			<description><![CDATA[<br>Source: Wikipedia article <a href="https://fr.wikipedia.org/wiki/La_Tour_Ronde">La Tour Ronde</a>]]></description>
		</Placemark>
		<Placemark>
			<name><![CDATA[La Tournette]]></name>
			<Point>
				<coordinates>6.2861,45.82722,0</coordinates>
			</Point>
			<Snippet></Snippet>
			<description><![CDATA[<br>Source: Wikipedia article <a href="https://fr.wikipedia.org/wiki/La_Tournette">La Tournette</a>]]></description>
		</Placemark>
		<Placemark>
			<name><![CDATA[Lancebranlette]]></name>
			<Point>
				<coordinates>6.85611,45.68528,0</coordinates>
			</Point>
			<Snippet></Snippet>
			<description><![CDATA[<br>Source: Wikipedia article <a href="https://fr.wikipedia.org/wiki/Lancebranlette">Lancebranlette</a>]]></description>
		</Placemark>
		<Placemark>
			<name><![CDATA[Lances de Malissard]]></name>
			<Point>
				<coordinates>5.87333,45.34667,0</coordinates>
			</Point>
			<Snippet></Snippet>
			<description><![CDATA[<br>Source: Wikipedia article <a href="https://fr.wikipedia.org/wiki/Lances_de_Malissard">Lances de Malissard</a>]]></description>
		</Placemark>
		<Placemark>
			<name><![CDATA[Le Brévent]]></name>
			<Point>
				<coordinates>6.83778,45.93417,0</coordinates>
			</Point>
			<Snippet></Snippet>
			<description><![CDATA[<br>Source: Wikipedia article <a href="https://fr.wikipedia.org/wiki/Le_Brévent">Le Brévent</a>]]></description>
		</Placemark>
		<Placemark>
			<name><![CDATA[Le Cheval Blanc (sommet)]]></name>
			<Point>
				<coordinates>6.87278,46.05194,0</coordinates>
			</Point>
			<Snippet></Snippet>
			<description><![CDATA[<br>Source: Wikipedia article <a href="https://fr.wikipedia.org/wiki/Le_Cheval_Blanc_(sommet)">Le Cheval Blanc (sommet)</a>]]></description>
		</Placemark>
		<Placemark>
			<name><![CDATA[Le Drouvet]]></name>
			<Point>
				<coordinates>6.3175,44.72111,0</coordinates>
			</Point>
			<Snippet></Snippet>
			<description><![CDATA[<br>Source: Wikipedia article <a href="https://fr.wikipedia.org/wiki/Le_Drouvet">Le Drouvet</a>]]></description>
		</Placemark>
		<Placemark>
			<name><![CDATA[Le Fifre]]></name>
			<Point>
				<coordinates>6.35667,44.91667,0</coordinates>
			</Point>
			<Snippet></Snippet>
			<description><![CDATA[<br>Source: Wikipedia article <a href="https://fr.wikipedia.org/wiki/Le_Fifre">Le Fifre</a>]]></description>
		</Placemark>
		<Placemark>
			<name><![CDATA[Le Grand Manti]]></name>
			<Point>
				<coordinates>5.90861,45.38472,0</coordinates>
			</Point>
			<Snippet></Snippet>
			<description><![CDATA[<br>Source: Wikipedia article <a href="https://fr.wikipedia.org/wiki/Le_Grand_Manti">Le Grand Manti</a>]]></description>
		</Placemark>
		<Placemark>
			<name><![CDATA[Le Marteau]]></name>
			<Point>
				<coordinates>6.76278,45.965853,0</coordinates>
			</Point>
			<Snippet></Snippet>
			<description><![CDATA[<br>Source: Wikipedia article <a href="https://fr.wikipedia.org/wiki/Le_Marteau">Le Marteau</a>]]></description>
		</Placemark>
		<Placemark>
			<name><![CDATA[Le Moucherotte]]></name>
			<Point>
				<coordinates>5.63944,45.1475,0</coordinates>
			</Point>
			<Snippet></Snippet>
			<description><![CDATA[<br>Source: Wikipedia article <a href="https://fr.wikipedia.org/wiki/Le_Moucherotte">Le Moucherotte</a>]]></description>
		</Placemark>
		<Placemark>
			<name><![CDATA[Le Môle]]></name>
			<Point>
				<coordinates>6.455,46.10667,0</coordinates>
			</Point>
			<Snippet></Snippet>
			<description><![CDATA[<br>Source: Wikipedia article <a href="https://fr.wikipedia.org/wiki/Le_Môle">Le Môle</a>]]></description>
		</Placemark>
		<Placemark>
			<name><![CDATA[Le Pavé]]></name>
			<Point>
				<coordinates>6.32389,44.99861,0</coordinates>
			</Point>
			<Snippet></Snippet>
			<description><![CDATA[<br>Source: Wikipedia article <a href="https://fr.wikipedia.org/wiki/Le_Pavé">Le Pavé</a>]]></description>
		</Placemark>
		<Placemark>
			<name><![CDATA[Le Plaret]]></name>
			<Point>
				<coordinates>6.25889,44.96806,0</coordinates>
			</Point>
			<Snippet></Snippet>
			<description><![CDATA[<br>Source: Wikipedia article <a href="https://fr.wikipedia.org/wiki/Le_Plaret">Le Plaret</a>]]></description>
		</Placemark>
		<Placemark>
			<name><![CDATA[Le Rochail]]></name>
			<Point>
				<coordinates>6.03111,44.98,0</coordinates>
			</Point>
			<Snippet></Snippet>
			<description><![CDATA[<br>Source: Wikipedia article <a href="https://fr.wikipedia.org/wiki/Le_Rochail">Le Rochail</a>]]></description>
		</Placemark>
		<Placemark>
			<name><![CDATA[Le Râteau]]></name>
			<Point>
				<coordinates>6.2806,45.00111,0</coordinates>
			</Point>
			<Snippet></Snippet>
			<description><![CDATA[<br>Source: Wikipedia article <a href="https://fr.wikipedia.org/wiki/Le_Râteau">Le Râteau</a>]]></description>
		</Placemark>
		<Placemark>
			<name><![CDATA[Le Sirac]]></name>
			<Point>
				<coordinates>6.30667,44.7889,0</coordinates>
			</Point>
			<Snippet></Snippet>
			<description><![CDATA[<br>Source: Wikipedia article <a href="https://fr.wikipedia.org/wiki/Le_Sirac">Le Sirac</a>]]></description>
		</Placemark>
		<Placemark>
			<name><![CDATA[Les Bans]]></name>
			<Point>
				<coordinates>6.3361,44.84833,0</coordinates>
			</Point>
			<Snippet></Snippet>
			<description><![CDATA[<br>Source: Wikipedia article <a href="https://fr.wikipedia.org/wiki/Les_Bans">Les Bans</a>]]></description>
		</Placemark>
		<Placemark>
			<name><![CDATA[Les Courtes]]></name>
			<Point>
				<coordinates>7.003472,45.9275,0</coordinates>
			</Point>
			<Snippet></Snippet>
			<description><![CDATA[<br>Source: Wikipedia article <a href="https://fr.wikipedia.org/wiki/Les_Courtes">Les Courtes</a>]]></description>
		</Placemark>
		<Placemark>
			<name><![CDATA[Les Droites]]></name>
			<Point>
				<coordinates>6.98917,45.93028,0</coordinates>
			</Point>
			<Snippet></Snippet>
			<description><![CDATA[<br>Source: Wikipedia article <a href="https://fr.wikipedia.org/wiki/Les_Droites">Les Droites</a>]]></description>
		</Placemark>
		<Placemark>
			<name><![CDATA[Les Drus]]></name>
			<Point>
				<coordinates>6.95639,45.93278,0</coordinates>
			</Point>
			<Snippet></Snippet>
			<description><![CDATA[<br>Source: Wikipedia article <a href="https://fr.wikipedia.org/wiki/Les_Drus">Les Drus</a>]]></description>
		</Placemark>
		<Placemark>
			<name><![CDATA[Les Monges]]></name>
			<Point>
				<coordinates>6.19417,44.26278,0</coordinates>
			</Point>
			<Snippet></Snippet>
			<description><![CDATA[<br>Source: Wikipedia article <a href="https://fr.wikipedia.org/wiki/Les_Monges">Les Monges</a>]]></description>
		</Placemark>
		<Placemark>
			<name><![CDATA[Les Périades]]></name>
			<Point>
				<coordinates>6.96056,45.8725,0</coordinates>
			</Point>
			<Snippet></Snippet>
			<description><![CDATA[<br>Source: Wikipedia article <a href="https://fr.wikipedia.org/wiki/Les_Périades">Les Périades</a>]]></description>
		</Placemark>
		<Placemark>
			<name><![CDATA[Les Rouies]]></name>
			<Point>
				<coordinates>6.25806,44.86361,0</coordinates>
			</Point>
			<Snippet></Snippet>
			<description><![CDATA[<br>Source: Wikipedia article <a href="https://fr.wikipedia.org/wiki/Les_Rouies">Les Rouies</a>]]></description>
		</Placemark>
		<Placemark>
			<name><![CDATA[Les Voirons]]></name>
			<Point>
				<coordinates>6.35528,46.2306,0</coordinates>
			</Point>
			<Snippet></Snippet>
			<description><![CDATA[<br>Source: Wikipedia article <a href="https://fr.wikipedia.org/wiki/Les_Voirons">Les Voirons</a>]]></description>
		</Placemark>
		<Placemark>
			<name><![CDATA[Levanna]]></name>
			<Point>
				<coordinates>7.17194,45.41028,0</coordinates>
			</Point>
			<Snippet></Snippet>
			<description><![CDATA[<br>Source: Wikipedia article <a href="https://fr.wikipedia.org/wiki/Levanna">Levanna</a>]]></description>
		</Placemark>
		<Placemark>
			<name><![CDATA[Massif d'Uchaux]]></name>
			<Point>
				<coordinates>4.8139,44.23111,0</coordinates>
			</Point>
			<Snippet></Snippet>
			<description><![CDATA[<br>Source: Wikipedia article <a href="https://fr.wikipedia.org/wiki/Massif_d'Uchaux">Massif d'Uchaux</a>]]></description>
		</Placemark>
		<Placemark>
			<name><![CDATA[Miélandre]]></name>
			<Point>
				<coordinates>5.19639,44.48472,0</coordinates>
			</Point>
			<Snippet></Snippet>
			<description><![CDATA[<br>Source: Wikipedia article <a href="https://fr.wikipedia.org/wiki/Miélandre">Miélandre</a>]]></description>
		</Placemark>
		<Placemark>
			<name><![CDATA[Mont Agel]]></name>
			<Point>
				<coordinates>7.42639,43.77528,0</coordinates>
			</Point>
			<Snippet></Snippet>
			<description><![CDATA[<br>Source: Wikipedia article <a href="https://fr.wikipedia.org/wiki/Mont_Agel">Mont Agel</a>]]></description>
		</Placemark>
		<Placemark>
			<name><![CDATA[Mont Aiguille]]></name>
			<Point>
				<coordinates>5.55306,44.84194,0</coordinates>
			</Point>
			<Snippet></Snippet>
			<description><![CDATA[<br>Source: Wikipedia article <a href="https://fr.wikipedia.org/wiki/Mont_Aiguille">Mont Aiguille</a>]]></description>
		</Placemark>
		<Placemark>
			<name><![CDATA[Mont Aiguillette]]></name>
			<Point>
				<coordinates>7.02444,44.69111,0</coordinates>
			</Point>
			<Snippet></Snippet>
			<description><![CDATA[<br>Source: Wikipedia article <a href="https://fr.wikipedia.org/wiki/Mont_Aiguillette">Mont Aiguillette</a>]]></description>
		</Placemark>
		<Placemark>
			<name><![CDATA[Mont Bichet]]></name>
			<Point>
				<coordinates>6.53722,46.27806,0</coordinates>
			</Point>
			<Snippet></Snippet>
			<description><![CDATA[<br>Source: Wikipedia article <a href="https://fr.wikipedia.org/wiki/Mont_Bichet">Mont Bichet</a>]]></description>
		</Placemark>
		<Placemark>
			<name><![CDATA[Mont Billiat]]></name>
			<Point>
				<coordinates>6.58389,46.28833,0</coordinates>
			</Point>
			<Snippet></Snippet>
			<description><![CDATA[<br>Source: Wikipedia article <a href="https://fr.wikipedia.org/wiki/Mont_Billiat">Mont Billiat</a>]]></description>
		</Placemark>
		<Placemark>
			<name><![CDATA[Mont Blanc]]></name>
			<Point>
				<coordinates>6.864717,45.832627,0</coordinates>
			</Point>
			<Snippet></Snippet>
			<description><![CDATA[<br>Source: Wikipedia article <a href="https://fr.wikipedia.org/wiki/Mont_Blanc">Mont Blanc</a>]]></description>
		</Placemark>
		<Placemark>
			<name><![CDATA[Mont Blanc de Courmayeur]]></name>
			<Point>
				<coordinates>6.8694,45.82889,0</coordinates>
			</Point>
			<Snippet></Snippet>
			<description><![CDATA[<br>Source: Wikipedia article <a href="https://fr.wikipedia.org/wiki/Mont_Blanc_de_Courmayeur">Mont Blanc de Courmayeur</a>]]></description>
		</Placemark>
		<Placemark>
			<name><![CDATA[Mont Blanc du Tacul]]></name>
			<Point>
				<coordinates>6.88778,45.85667,0</coordinates>
			</Point>
			<Snippet></Snippet>
			<description><![CDATA[<br>Source: Wikipedia article <a href="https://fr.wikipedia.org/wiki/Mont_Blanc_du_Tacul">Mont Blanc du Tacul</a>]]></description>
		</Placemark>
		<Placemark>
			<name><![CDATA[Mont Boron]]></name>
			<Point>
				<coordinates>7.30083,43.69,0</coordinates>
			</Point>
			<Snippet></Snippet>
			<description><![CDATA[<br>Source: Wikipedia article <a href="https://fr.wikipedia.org/wiki/Mont_Boron">Mont Boron</a>]]></description>
		</Placemark>
		<Placemark>
			<name><![CDATA[Mont Bréquin]]></name>
			<Point>
				<coordinates>6.53361,45.25167,0</coordinates>
			</Point>
			<Snippet></Snippet>
			<description><![CDATA[<br>Source: Wikipedia article <a href="https://fr.wikipedia.org/wiki/Mont_Bréquin">Mont Bréquin</a>]]></description>
		</Placemark>
		<Placemark>
			<name><![CDATA[Mont Buet]]></name>
			<Point>
				<coordinates>6.8525,46.025,0</coordinates>
			</Point>
			<Snippet></Snippet>
			<description><![CDATA[<br>Source: Wikipedia article <a href="https://fr.wikipedia.org/wiki/Mont_Buet">Mont Buet</a>]]></description>
		</Placemark>
		<Placemark>
			<name><![CDATA[Mont Bégo]]></name>
			<Point>
				<coordinates>7.45083,44.07306,0</coordinates>
			</Point>
			<Snippet></Snippet>
			<description><![CDATA[<br>Source: Wikipedia article <a href="https://fr.wikipedia.org/wiki/Mont_Bégo">Mont Bégo</a>]]></description>
		</Placemark>
		<Placemark>
			<name><![CDATA[Mont Chaberton]]></name>
			<Point>
				<coordinates>6.75111,44.96444,0</coordinates>
			</Point>
			<Snippet></Snippet>
			<description><![CDATA[<br>Source: Wikipedia article <a href="https://fr.wikipedia.org/wiki/Mont_Chaberton">Mont Chaberton</a>]]></description>
		</Placemark>
		<Placemark>
			<name><![CDATA[Mont Charvet]]></name>
			<Point>
				<coordinates>6.53861,45.94222,0</coordinates>
			</Point>
			<Snippet></Snippet>
			<description><![CDATA[<br>Source: Wikipedia article <a href="https://fr.wikipedia.org/wiki/Mont_Charvet">Mont Charvet</a>]]></description>
		</Placemark>
		<Placemark>
			<name><![CDATA[Mont Charvin (Aravis)]]></name>
			<Point>
				<coordinates>6.42028,45.8025,0</coordinates>
			</Point>
			<Snippet></Snippet>
			<description><![CDATA[<br>Source: Wikipedia article <a href="https://fr.wikipedia.org/wiki/Mont_Charvin_(Aravis)">Mont Charvin (Aravis)</a>]]></description>
		</Placemark>
		<Placemark>
			<name><![CDATA[Mont Charvin (Maurienne)]]></name>
			<Point>
				<coordinates>6.28472,45.21722,0</coordinates>
			</Point>
			<Snippet></Snippet>
			<description><![CDATA[<br>Source: Wikipedia article <a href="https://fr.wikipedia.org/wiki/Mont_Charvin_(Maurienne)">Mont Charvin (Maurienne)</a>]]></description>
		</Placemark>
		<Placemark>
			<name><![CDATA[Mont Chauffé]]></name>
			<Point>
				<coordinates>6.76056,46.30944,0</coordinates>
			</Point>
			<Snippet></Snippet>
			<description><![CDATA[<br>Source: Wikipedia article <a href="https://fr.wikipedia.org/wiki/Mont_Chauffé">Mont Chauffé</a>]]></description>
		</Placemark>
		<Placemark>
			<name><![CDATA[Mont Chenaillet]]></name>
			<Point>
				<coordinates>6.74028,44.90222,0</coordinates>
			</Point>
			<Snippet></Snippet>
			<description><![CDATA[<br>Source: Wikipedia article <a href="https://fr.wikipedia.org/wiki/Mont_Chenaillet">Mont Chenaillet</a>]]></description>
		</Placemark>
		<Placemark>
			<name><![CDATA[Mont Chiran]]></name>
			<Point>
				<coordinates>6.31667,43.86806,0</coordinates>
			</Point>
			<Snippet></Snippet>
			<description><![CDATA[<br>Source: Wikipedia article <a href="https://fr.wikipedia.org/wiki/Mont_Chiran">Mont Chiran</a>]]></description>
		</Placemark>
		<Placemark>
			<name><![CDATA[Mont Chéry]]></name>
			<Point>
				<coordinates>6.64806,46.16889,0</coordinates>
			</Point>
			<Snippet></Snippet>
			<description><![CDATA[<br>Source: Wikipedia article <a href="https://fr.wikipedia.org/wiki/Mont_Chéry">Mont Chéry</a>]]></description>
		</Placemark>
		<Placemark>
			<name><![CDATA[Mont Clapier]]></name>
			<Point>
				<coordinates>7.42,44.11528,0</coordinates>
			</Point>
			<Snippet></Snippet>
			<description><![CDATA[<br>Source: Wikipedia article <a href="https://fr.wikipedia.org/wiki/Mont_Clapier">Mont Clapier</a>]]></description>
		</Placemark>
		<Placemark>
			<name><![CDATA[Mont Coin]]></name>
			<Point>
				<coordinates>6.62056,45.63194,0</coordinates>
			</Point>
			<Snippet></Snippet>
			<description><![CDATA[<br>Source: Wikipedia article <a href="https://fr.wikipedia.org/wiki/Mont_Coin">Mont Coin</a>]]></description>
		</Placemark>
		<Placemark>
			<name><![CDATA[Mont Colombier]]></name>
			<Point>
				<coordinates>6.1194,45.6444,0</coordinates>
			</Point>
			<Snippet></Snippet>
			<description><![CDATA[<br>Source: Wikipedia article <a href="https://fr.wikipedia.org/wiki/Mont_Colombier">Mont Colombier</a>]]></description>
		</Placemark>
		<Placemark>
			<name><![CDATA[Mont Colombis]]></name>
			<Point>
				<coordinates>6.2175,44.495,0</coordinates>
			</Point>
			<Snippet></Snippet>
			<description><![CDATA[<br>Source: Wikipedia article <a href="https://fr.wikipedia.org/wiki/Mont_Colombis">Mont Colombis</a>]]></description>
		</Placemark>
		<Placemark>
			<name><![CDATA[Mont Fleuri (sommet)]]></name>
			<Point>
				<coordinates>6.53361,45.93278,0</coordinates>
			</Point>
			<Snippet></Snippet>
			<description><![CDATA[<br>Source: Wikipedia article <a href="https://fr.wikipedia.org/wiki/Mont_Fleuri_(sommet)">Mont Fleuri (sommet)</a>]]></description>
		</Placemark>
		<Placemark>
			<name><![CDATA[Mont Forchat]]></name>
			<Point>
				<coordinates>6.48833,46.27361,0</coordinates>
			</Point>
			<Snippet></Snippet>
			<description><![CDATA[<br>Source: Wikipedia article <a href="https://fr.wikipedia.org/wiki/Mont_Forchat">Mont Forchat</a>]]></description>
		</Placemark>
		<Placemark>
			<name><![CDATA[Mont Férion]]></name>
			<Point>
				<coordinates>7.2725,43.86861,0</coordinates>
			</Point>
			<Snippet></Snippet>
			<description><![CDATA[<br>Source: Wikipedia article <a href="https://fr.wikipedia.org/wiki/Mont_Férion">Mont Férion</a>]]></description>
		</Placemark>
		<Placemark>
			<name><![CDATA[Mont Giusalet]]></name>
			<Point>
				<coordinates>6.92972,45.1806,0</coordinates>
			</Point>
			<Snippet></Snippet>
			<description><![CDATA[<br>Source: Wikipedia article <a href="https://fr.wikipedia.org/wiki/Mont_Giusalet">Mont Giusalet</a>]]></description>
		</Placemark>
		<Placemark>
			<name><![CDATA[Mont Granier]]></name>
			<Point>
				<coordinates>5.92528,45.46472,1933</coordinates>
			</Point>
			<Snippet>1933</Snippet>
			<description><![CDATA[<br>Source: Wikipedia article <a href="https://fr.wikipedia.org/wiki/Mont_Granier">Mont Granier</a>]]></description>
		</Placemark>
		<Placemark>
			<name><![CDATA[Mont Jalla]]></name>
			<Point>
				<coordinates>5.72472,45.20472,0</coordinates>
			</Point>
			<Snippet></Snippet>
			<description><![CDATA[<br>Source: Wikipedia article <a href="https://fr.wikipedia.org/wiki/Mont_Jalla">Mont Jalla</a>]]></description>
		</Placemark>
		<Placemark>
			<name><![CDATA[Mont Joigny]]></name>
			<Point>
				<coordinates>5.89778,45.4917,0</coordinates>
			</Point>
			<Snippet></Snippet>
			<description><![CDATA[<br>Source: Wikipedia article <a href="https://fr.wikipedia.org/wiki/Mont_Joigny">Mont Joigny</a>]]></description>
		</Placemark>
		<Placemark>
			<name><![CDATA[Mont Joly]]></name>
			<Point>
				<coordinates>6.69278,45.82583,0</coordinates>
			</Point>
			<Snippet></Snippet>
			<description><![CDATA[<br>Source: Wikipedia article <a href="https://fr.wikipedia.org/wiki/Mont_Joly">Mont Joly</a>]]></description>
		</Placemark>
		<Placemark>
			<name><![CDATA[Mont Julioz]]></name>
			<Point>
				<coordinates>6.16056,45.70722,0</coordinates>
			</Point>
			<Snippet></Snippet>
			<description><![CDATA[<br>Source: Wikipedia article <a href="https://fr.wikipedia.org/wiki/Mont_Julioz">Mont Julioz</a>]]></description>
		</Placemark>
		<Placemark>
			<name><![CDATA[Mont Lachat]]></name>
			<Point>
				<coordinates>6.35139,45.9275,0</coordinates>
			</Point>
			<Snippet></Snippet>
			<description><![CDATA[<br>Source: Wikipedia article <a href="https://fr.wikipedia.org/wiki/Mont_Lachat">Mont Lachat</a>]]></description>
		</Placemark>
		<Placemark>
			<name><![CDATA[Mont Malinvern]]></name>
			<Point>
				<coordinates>7.1889,44.19861,0</coordinates>
			</Point>
			<Snippet></Snippet>
			<description><![CDATA[<br>Source: Wikipedia article <a href="https://fr.wikipedia.org/wiki/Mont_Malinvern">Mont Malinvern</a>]]></description>
		</Placemark>
		<Placemark>
			<name><![CDATA[Mont Mallet]]></name>
			<Point>
				<coordinates>6.96056,45.86528,0</coordinates>
			</Point>
			<Snippet></Snippet>
			<description><![CDATA[<br>Source: Wikipedia article <a href="https://fr.wikipedia.org/wiki/Mont_Mallet">Mont Mallet</a>]]></description>
		</Placemark>
		<Placemark>
			<name><![CDATA[Mont Margériaz]]></name>
			<Point>
				<coordinates>6.03444,45.63583,0</coordinates>
			</Point>
			<Snippet></Snippet>
			<description><![CDATA[<br>Source: Wikipedia article <a href="https://fr.wikipedia.org/wiki/Mont_Margériaz">Mont Margériaz</a>]]></description>
		</Placemark>
		<Placemark>
			<name><![CDATA[Mont Maudit]]></name>
			<Point>
				<coordinates>6.87583,45.84778,0</coordinates>
			</Point>
			<Snippet></Snippet>
			<description><![CDATA[<br>Source: Wikipedia article <a href="https://fr.wikipedia.org/wiki/Mont_Maudit">Mont Maudit</a>]]></description>
		</Placemark>
		<Placemark>
			<name><![CDATA[Mont Mirantin]]></name>
			<Point>
				<coordinates>6.49889,45.68444,0</coordinates>
			</Point>
			<Snippet></Snippet>
			<description><![CDATA[<br>Source: Wikipedia article <a href="https://fr.wikipedia.org/wiki/Mont_Mirantin">Mont Mirantin</a>]]></description>
		</Placemark>
		<Placemark>
			<name><![CDATA[Mont Mounier]]></name>
			<Point>
				<coordinates>6.97167,44.15417,0</coordinates>
			</Point>
			<Snippet></Snippet>
			<description><![CDATA[<br>Source: Wikipedia article <a href="https://fr.wikipedia.org/wiki/Mont_Mounier">Mont Mounier</a>]]></description>
		</Placemark>
		<Placemark>
			<name><![CDATA[Mont Neiglier]]></name>
			<Point>
				<coordinates>7.38694,44.08833,0</coordinates>
			</Point>
			<Snippet></Snippet>
			<description><![CDATA[<br>Source: Wikipedia article <a href="https://fr.wikipedia.org/wiki/Mont_Neiglier">Mont Neiglier</a>]]></description>
		</Placemark>
		<Placemark>
			<name><![CDATA[Mont Orchez]]></name>
			<Point>
				<coordinates>6.55056,46.09917,0</coordinates>
			</Point>
			<Snippet></Snippet>
			<description><![CDATA[<br>Source: Wikipedia article <a href="https://fr.wikipedia.org/wiki/Mont_Orchez">Mont Orchez</a>]]></description>
		</Placemark>
		<Placemark>
			<name><![CDATA[Mont Outheran]]></name>
			<Point>
				<coordinates>5.845,45.46583,0</coordinates>
			</Point>
			<Snippet></Snippet>
			<description><![CDATA[<br>Source: Wikipedia article <a href="https://fr.wikipedia.org/wiki/Mont_Outheran">Mont Outheran</a>]]></description>
		</Placemark>
		<Placemark>
			<name><![CDATA[Mont Ouzon]]></name>
			<Point>
				<coordinates>6.6444,46.29972,0</coordinates>
			</Point>
			<Snippet></Snippet>
			<description><![CDATA[<br>Source: Wikipedia article <a href="https://fr.wikipedia.org/wiki/Mont_Ouzon">Mont Ouzon</a>]]></description>
		</Placemark>
		<Placemark>
			<name><![CDATA[Mont Pelat]]></name>
			<Point>
				<coordinates>6.70583,44.26472,0</coordinates>
			</Point>
			<Snippet></Snippet>
			<description><![CDATA[<br>Source: Wikipedia article <a href="https://fr.wikipedia.org/wiki/Mont_Pelat">Mont Pelat</a>]]></description>
		</Placemark>
		<Placemark>
			<name><![CDATA[Mont Pelve]]></name>
			<Point>
				<coordinates>6.78139,45.35667,0</coordinates>
			</Point>
			<Snippet></Snippet>
			<description><![CDATA[<br>Source: Wikipedia article <a href="https://fr.wikipedia.org/wiki/Mont_Pelve">Mont Pelve</a>]]></description>
		</Placemark>
		<Placemark>
			<name><![CDATA[Mont Pelvoux]]></name>
			<Point>
				<coordinates>6.39333,44.89806,0</coordinates>
			</Point>
			<Snippet></Snippet>
			<description><![CDATA[<br>Source: Wikipedia article <a href="https://fr.wikipedia.org/wiki/Mont_Pelvoux">Mont Pelvoux</a>]]></description>
		</Placemark>
		<Placemark>
			<name><![CDATA[Mont Peney]]></name>
			<Point>
				<coordinates>5.99,45.59778,0</coordinates>
			</Point>
			<Snippet></Snippet>
			<description><![CDATA[<br>Source: Wikipedia article <a href="https://fr.wikipedia.org/wiki/Mont_Peney">Mont Peney</a>]]></description>
		</Placemark>
		<Placemark>
			<name><![CDATA[Mont Pourri]]></name>
			<Point>
				<coordinates>6.86,45.52833,0</coordinates>
			</Point>
			<Snippet></Snippet>
			<description><![CDATA[<br>Source: Wikipedia article <a href="https://fr.wikipedia.org/wiki/Mont_Pourri">Mont Pourri</a>]]></description>
		</Placemark>
		<Placemark>
			<name><![CDATA[Mont Pouzenc]]></name>
			<Point>
				<coordinates>6.51583,44.45861,0</coordinates>
			</Point>
			<Snippet></Snippet>
			<description><![CDATA[<br>Source: Wikipedia article <a href="https://fr.wikipedia.org/wiki/Mont_Pouzenc">Mont Pouzenc</a>]]></description>
		</Placemark>
		<Placemark>
			<name><![CDATA[Mont Prorel]]></name>
			<Point>
				<coordinates>6.58111,44.90528,0</coordinates>
			</Point>
			<Snippet></Snippet>
			<description><![CDATA[<br>Source: Wikipedia article <a href="https://fr.wikipedia.org/wiki/Mont_Prorel">Mont Prorel</a>]]></description>
		</Placemark>
		<Placemark>
			<name><![CDATA[Mont Rachais]]></name>
			<Point>
				<coordinates>5.74361,45.2417,0</coordinates>
			</Point>
			<Snippet></Snippet>
			<description><![CDATA[<br>Source: Wikipedia article <a href="https://fr.wikipedia.org/wiki/Mont_Rachais">Mont Rachais</a>]]></description>
		</Placemark>
		<Placemark>
			<name><![CDATA[Mont Revard]]></name>
			<Point>
				<coordinates>5.98972,45.68944,0</coordinates>
			</Point>
			<Snippet></Snippet>
			<description><![CDATA[<br>Source: Wikipedia article <a href="https://fr.wikipedia.org/wiki/Mont_Revard">Mont Revard</a>]]></description>
		</Placemark>
		<Placemark>
			<name><![CDATA[Mont Saint-Eynard]]></name>
			<Point>
				<coordinates>5.79917,45.25972,0</coordinates>
			</Point>
			<Snippet></Snippet>
			<description><![CDATA[<br>Source: Wikipedia article <a href="https://fr.wikipedia.org/wiki/Mont_Saint-Eynard">Mont Saint-Eynard</a>]]></description>
		</Placemark>
		<Placemark>
			<name><![CDATA[Mont Saint-Honorat]]></name>
			<Point>
				<coordinates>6.76444,44.0764,0</coordinates>
			</Point>
			<Snippet></Snippet>
			<description><![CDATA[<br>Source: Wikipedia article <a href="https://fr.wikipedia.org/wiki/Mont_Saint-Honorat">Mont Saint-Honorat</a>]]></description>
		</Placemark>
		<Placemark>
			<name><![CDATA[Mont Serein]]></name>
			<Point>
				<coordinates>5.26083,44.18528,0</coordinates>
			</Point>
			<Snippet></Snippet>
			<description><![CDATA[<br>Source: Wikipedia article <a href="https://fr.wikipedia.org/wiki/Mont_Serein">Mont Serein</a>]]></description>
		</Placemark>
		<Placemark>
			<name><![CDATA[Mont Thabor (France)]]></name>
			<Point>
				<coordinates>6.5639,45.11417,0</coordinates>
			</Point>
			<Snippet></Snippet>
			<description><![CDATA[<br>Source: Wikipedia article <a href="https://fr.wikipedia.org/wiki/Mont_Thabor_(France)">Mont Thabor (France)</a>]]></description>
		</Placemark>
		<Placemark>
			<name><![CDATA[Mont Tondu]]></name>
			<Point>
				<coordinates>6.75528,45.76361,0</coordinates>
			</Point>
			<Snippet></Snippet>
			<description><![CDATA[<br>Source: Wikipedia article <a href="https://fr.wikipedia.org/wiki/Mont_Tondu">Mont Tondu</a>]]></description>
		</Placemark>
		<Placemark>
			<name><![CDATA[Mont Tournairet]]></name>
			<Point>
				<coordinates>7.23389,44.01611,0</coordinates>
			</Point>
			<Snippet></Snippet>
			<description><![CDATA[<br>Source: Wikipedia article <a href="https://fr.wikipedia.org/wiki/Mont_Tournairet">Mont Tournairet</a>]]></description>
		</Placemark>
		<Placemark>
			<name><![CDATA[Mont Turia]]></name>
			<Point>
				<coordinates>6.86056,45.5325,0</coordinates>
			</Point>
			<Snippet></Snippet>
			<description><![CDATA[<br>Source: Wikipedia article <a href="https://fr.wikipedia.org/wiki/Mont_Turia">Mont Turia</a>]]></description>
		</Placemark>
		<Placemark>
			<name><![CDATA[Mont Ténibre]]></name>
			<Point>
				<coordinates>6.97139,44.28389,0</coordinates>
			</Point>
			<Snippet></Snippet>
			<description><![CDATA[<br>Source: Wikipedia article <a href="https://fr.wikipedia.org/wiki/Mont_Ténibre">Mont Ténibre</a>]]></description>
		</Placemark>
		<Placemark>
			<name><![CDATA[Mont Ventoux]]></name>
			<Point>
				<coordinates>5.27889,44.17444,0</coordinates>
			</Point>
			<Snippet></Snippet>
			<description><![CDATA[<br>Source: Wikipedia article <a href="https://fr.wikipedia.org/wiki/Mont_Ventoux">Mont Ventoux</a>]]></description>
		</Placemark>
		<Placemark>
			<name><![CDATA[Mont Ventoux]]></name>
			<Point>
				<coordinates>5.2833333333333,44.166666666667,0</coordinates>
			</Point>
			<Snippet></Snippet>
			<description><![CDATA[<br>Source: Wikipedia article <a href="https://fr.wikipedia.org/wiki/Mont_Ventoux">Mont Ventoux</a>]]></description>
		</Placemark>
		<Placemark>
			<name><![CDATA[Mont Veyrier]]></name>
			<Point>
				<coordinates>6.1825,45.90056,0</coordinates>
			</Point>
			<Snippet></Snippet>
			<description><![CDATA[<br>Source: Wikipedia article <a href="https://fr.wikipedia.org/wiki/Mont_Veyrier">Mont Veyrier</a>]]></description>
		</Placemark>
		<Placemark>
			<name><![CDATA[Mont d'Ambin]]></name>
			<Point>
				<coordinates>6.88417,45.15694,0</coordinates>
			</Point>
			<Snippet></Snippet>
			<description><![CDATA[<br>Source: Wikipedia article <a href="https://fr.wikipedia.org/wiki/Mont_d'Ambin">Mont d'Ambin</a>]]></description>
		</Placemark>
		<Placemark>
			<name><![CDATA[Mont d'Arbois]]></name>
			<Point>
				<coordinates>6.6694,45.85472,0</coordinates>
			</Point>
			<Snippet></Snippet>
			<description><![CDATA[<br>Source: Wikipedia article <a href="https://fr.wikipedia.org/wiki/Mont_d'Arbois">Mont d'Arbois</a>]]></description>
		</Placemark>
		<Placemark>
			<name><![CDATA[Mont d'Hermone]]></name>
			<Point>
				<coordinates>6.53222,46.31694,0</coordinates>
			</Point>
			<Snippet></Snippet>
			<description><![CDATA[<br>Source: Wikipedia article <a href="https://fr.wikipedia.org/wiki/Mont_d'Hermone">Mont d'Hermone</a>]]></description>
		</Placemark>
		<Placemark>
			<name><![CDATA[Mont de Boisy]]></name>
			<Point>
				<coordinates>6.35778,46.30778,0</coordinates>
			</Point>
			<Snippet></Snippet>
			<description><![CDATA[<br>Source: Wikipedia article <a href="https://fr.wikipedia.org/wiki/Mont_de_Boisy">Mont de Boisy</a>]]></description>
		</Placemark>
		<Placemark>
			<name><![CDATA[Mont de Grange]]></name>
			<Point>
				<coordinates>6.7806,46.2625,0</coordinates>
			</Point>
			<Snippet></Snippet>
			<description><![CDATA[<br>Source: Wikipedia article <a href="https://fr.wikipedia.org/wiki/Mont_de_Grange">Mont de Grange</a>]]></description>
		</Placemark>
		<Placemark>
			<name><![CDATA[Mont de Gébroulaz]]></name>
			<Point>
				<coordinates>6.62917,45.27472,0</coordinates>
			</Point>
			<Snippet></Snippet>
			<description><![CDATA[<br>Source: Wikipedia article <a href="https://fr.wikipedia.org/wiki/Mont_de_Gébroulaz">Mont de Gébroulaz</a>]]></description>
		</Placemark>
		<Placemark>
			<name><![CDATA[Mont du Borgne]]></name>
			<Point>
				<coordinates>6.61333,45.30389,0</coordinates>
			</Point>
			<Snippet></Snippet>
			<description><![CDATA[<br>Source: Wikipedia article <a href="https://fr.wikipedia.org/wiki/Mont_du_Borgne">Mont du Borgne</a>]]></description>
		</Placemark>
		<Placemark>
			<name><![CDATA[Montagne d'Angèle]]></name>
			<Point>
				<coordinates>5.2575,44.48778,0</coordinates>
			</Point>
			<Snippet></Snippet>
			<description><![CDATA[<br>Source: Wikipedia article <a href="https://fr.wikipedia.org/wiki/Montagne_d'Angèle">Montagne d'Angèle</a>]]></description>
		</Placemark>
		<Placemark>
			<name><![CDATA[Montagne de Bange]]></name>
			<Point>
				<coordinates>6.03694,45.72972,0</coordinates>
			</Point>
			<Snippet></Snippet>
			<description><![CDATA[<br>Source: Wikipedia article <a href="https://fr.wikipedia.org/wiki/Montagne_de_Bange">Montagne de Bange</a>]]></description>
		</Placemark>
		<Placemark>
			<name><![CDATA[Montagne de Chabre]]></name>
			<Point>
				<coordinates>5.64278,44.26583,0</coordinates>
			</Point>
			<Snippet></Snippet>
			<description><![CDATA[<br>Source: Wikipedia article <a href="https://fr.wikipedia.org/wiki/Montagne_de_Chabre">Montagne de Chabre</a>]]></description>
		</Placemark>
		<Placemark>
			<name><![CDATA[Montagne de Cordœil]]></name>
			<Point>
				<coordinates>6.52944,44.06778,0</coordinates>
			</Point>
			<Snippet></Snippet>
			<description><![CDATA[<br>Source: Wikipedia article <a href="https://fr.wikipedia.org/wiki/Montagne_de_Cordœil">Montagne de Cordœil</a>]]></description>
		</Placemark>